City,Lat,Lng,Max Temp,Humidity,Cloudiness,Wind Speed,Country,Date
t'ongch'on-up,38.9539,127.8917,11.19,77,1,3.49,KP,2024-04-11 18:22:23
tanout,14.9709,8.8879,30.42,9,99,4.56,NE,2024-04-11 18:22:24
iqaluit,63.7506,-68.5145,-2.15,68,100,2.57,CA,2024-04-11 18:17:50
blackmans bay,-43.0167,147.3167,11.4,83,82,0.45,AU,2024-04-11 18:22:10
puerto ayora,-0.7393,-90.3518,28.98,97,48,4.47,EC,2024-04-11 18:22:24
moires,35.0532,24.8744,15.98,74,4,0.89,GR,2024-04-11 18:22:24
lebu,-37.6167,-73.65,13.17,77,1,2.73,CL,2024-04-11 18:22:25
invercargill,-46.4,168.35,9.45,84,100,0.89,NZ,2024-04-11 18:22:25
ushuaia,-54.8,-68.3,7.81,66,0,12.35,AR,2024-04-11 18:18:35
okha,53.5739,142.9478,-1.53,96,75,4.02,RU,2024-04-11 18:22:25
narasannapeta,18.4167,84.05,25.81,76,9,2.16,IN,2024-04-11 18:22:25
tangalle,6.024,80.7911,26.46,84,97,4.6,LK,2024-04-11 18:20:49
albany,42.6001,-73.9662,15.37,79,100,0.89,US,2024-04-11 18:18:06
port elizabeth,-33.918,25.5701,15.05,80,20,4.63,ZA,2024-04-11 18:22:26
lihue,21.9789,-159.3672,26.58,80,100,2.06,US,2024-04-11 18:18:17
port mathurin,-19.6833,63.4167,26.71,77,4,5.04,MU,2024-04-11 18:22:26
port-aux-francais,-49.35,70.2167,5.9,89,100,3.34,TF,2024-04-11 18:22:26
shahr-e babak,30.1165,55.1186,14.07,40,1,5.43,IR,2024-04-11 18:22:26
raduzhny,62.0961,77.475,-16.98,92,89,4.35,RU,2024-04-11 18:20:37
margaret river,-33.95,115.0667,11.57,88,5,5.25,AU,2024-04-11 18:21:44
bethel,41.3712,-73.414,15.27,88,100,1.54,US,2024-04-11 18:18:36
stanley,54.868,-1.6985,13.17,94,40,4.63,GB,2024-04-11 18:21:22
minas de marcona,-15.2119,-75.1103,19.29,70,3,6.96,PE,2024-04-11 18:18:52
suva,-18.1416,178.4415,28.71,84,75,0.0,FJ,2024-04-11 18:22:27
tsiombe,-25.3,45.4833,20.38,87,93,2.11,MG,2024-04-11 18:22:27
mount pearl,47.5166,-52.7813,3.8,75,0,5.14,CA,2024-04-11 18:19:20
grytviken,-54.2811,-36.5092,-1.31,70,13,4.31,GS,2024-04-11 18:21:38
bubaque,11.2833,-15.8333,24.22,71,0,9.19,GW,2024-04-11 18:19:51
yellowknife,62.456,-114.3525,3.29,60,40,4.63,CA,2024-04-11 18:20:10
nuevo,33.8014,-117.1459,32.08,21,0,3.09,US,2024-04-11 18:22:29
west island,-12.1568,96.8225,25.99,89,49,2.57,CC,2024-04-11 18:22:29
lyantor,61.6195,72.1555,-8.15,87,99,10.42,RU,2024-04-11 18:22:29
georgetown,5.4112,100.3354,27.75,83,20,1.03,MY,2024-04-11 18:17:40
olonkinbyen,70.9221,-8.7187,-8.43,88,100,6.79,SJ,2024-04-11 18:18:38
aasiaat,68.7098,-52.8699,-5.9,91,99,1.94,GL,2024-04-11 18:19:43
fort-shevchenko,44.5086,50.263,13.4,58,13,6.26,KZ,2024-04-11 18:22:30
kuching,1.55,110.3333,26.1,98,40,0.45,MY,2024-04-11 18:19:36
sechura,-5.5569,-80.8222,27.83,59,47,5.88,PE,2024-04-11 18:22:30
dudinka,69.4058,86.1778,-25.77,100,85,3.6,RU,2024-04-11 18:18:06
bilibino,68.0546,166.4372,-13.38,86,100,1.52,RU,2024-04-11 18:17:52
orcopampa,-15.2661,-72.3417,11.0,76,100,3.72,PE,2024-04-11 18:22:31
badger,64.8,-147.5333,6.31,44,75,4.12,US,2024-04-11 18:21:44
vilyuchinsk,52.9306,158.4028,3.15,76,5,3.7,RU,2024-04-11 18:18:34
flying fish cove,-10.4217,105.6791,26.82,83,75,4.12,CX,2024-04-11 18:20:22
dzhalagash,45.0833,64.6667,9.87,47,76,8.37,KZ,2024-04-11 18:22:32
longyearbyen,78.2186,15.6401,-14.09,66,0,3.6,SJ,2024-04-11 18:22:32
punta arenas,-53.15,-70.9167,9.06,61,0,14.4,CL,2024-04-11 18:18:41
kapuskasing,49.4169,-82.4331,16.0,36,100,1.54,CA,2024-04-11 18:21:40
ta`u,-14.2336,-169.5144,29.03,78,5,4.44,AS,2024-04-11 18:22:33
la ronge,55.1001,-105.2842,6.14,52,20,3.6,CA,2024-04-11 18:22:33
zalingei,12.9096,23.4741,27.07,12,60,1.7,SD,2024-04-11 18:22:34
kuraymah,18.55,31.85,24.2,15,18,6.73,SD,2024-04-11 18:22:34
adamstown,-25.066,-130.1015,21.05,54,3,5.97,PN,2024-04-11 18:21:26
puerto natales,-51.7236,-72.4875,4.5,89,20,2.47,CL,2024-04-11 18:22:34
dalbandin,28.8947,64.4101,25.96,37,100,6.2,PK,2024-04-11 18:22:34
klyuchi,52.2667,79.1667,-1.93,70,95,3.96,RU,2024-04-11 18:22:35
wailua homesteads,22.0669,-159.378,26.24,84,100,2.06,US,2024-04-11 18:18:17
kambove,-10.8764,26.5969,17.5,97,93,1.6,CD,2024-04-11 18:22:35
hermanus,-34.4187,19.2345,13.78,72,19,7.87,ZA,2024-04-11 18:18:21
letlhakane,-21.4167,25.5833,19.72,60,98,8.63,BW,2024-04-11 18:22:36
codrington,-38.2667,141.9667,13.9,66,98,2.83,AU,2024-04-11 18:21:16
woodland,38.6785,-121.7733,29.23,42,0,3.09,US,2024-04-11 18:20:05
calca,-13.3333,-71.95,16.64,76,99,2.63,PE,2024-04-11 18:22:36
serov,59.6033,60.5787,5.72,93,100,3.59,RU,2024-04-11 18:22:36
waitangi,-43.9535,-176.5597,17.68,93,100,5.36,NZ,2024-04-11 18:21:31
ribeira grande,38.5167,-28.7,15.99,93,97,1.79,PT,2024-04-11 18:22:37
crane,31.3974,-102.3501,26.53,14,0,5.34,US,2024-04-11 18:22:37
udachny,66.4167,112.4,-28.08,100,100,2.06,RU,2024-04-11 18:21:54
cannonvale,-20.2833,148.7,23.66,77,4,5.85,AU,2024-04-11 18:22:37
tiksi,71.6872,128.8694,-26.88,95,22,5.38,RU,2024-04-11 18:21:48
yuzhno-kurilsk,44.0306,145.8556,4.65,76,100,3.7,RU,2024-04-11 18:22:38
kodiak,57.79,-152.4072,0.73,93,100,2.06,US,2024-04-11 18:22:15
port douglas,-16.4833,145.4667,24.27,69,52,3.2,AU,2024-04-11 18:20:30
woolgoolga,-30.1106,153.2007,19.93,69,2,4.58,AU,2024-04-11 18:22:39
san rafael del yuma,18.4299,-68.6739,29.11,69,31,6.61,DO,2024-04-11 18:22:39
kailua-kona,19.6406,-155.9956,27.93,73,100,2.57,US,2024-04-11 18:22:39
holualoa,19.6228,-155.9522,25.31,75,100,2.57,US,2024-04-11 18:19:34
callao,-12.0667,-77.15,24.16,69,0,6.17,PE,2024-04-11 18:19:50
la passe,45.5549,-0.8967,13.34,93,40,3.26,FR,2024-04-11 18:22:40
vila velha,-20.3297,-40.2925,27.75,82,20,1.54,BR,2024-04-11 18:19:22
kerema,-7.9631,145.7785,24.5,93,100,2.54,PG,2024-04-11 18:22:40
san andres,12.5847,-81.7006,30.01,74,40,5.66,CO,2024-04-11 18:22:40
banda aceh,5.5577,95.3222,26.88,78,97,1.86,ID,2024-04-11 18:17:55
fuglafjordur,62.244,-6.814,7.26,85,100,8.03,FO,2024-04-11 18:20:38
villamontes,-21.25,-63.5,16.57,82,100,2.05,BO,2024-04-11 18:22:41
isafjordur,66.0755,-23.124,-2.81,94,100,13.94,IS,2024-04-11 18:21:58
daru,-9.0763,143.2092,26.81,84,100,7.65,PG,2024-04-11 18:22:42
bouca,6.5105,18.2733,27.06,57,16,1.97,CF,2024-04-11 18:22:42
lijiang,26.8688,100.2207,5.59,66,18,2.45,CN,2024-04-11 18:22:42
reggane,26.7158,0.1714,25.59,17,0,7.47,DZ,2024-04-11 18:22:42
petropavlovsk-kamchatsky,53.0452,158.6483,2.33,71,0,11.62,RU,2024-04-11 18:22:42
talara,-4.5772,-81.2719,29.42,58,0,5.14,PE,2024-04-11 18:22:42
wynyard,-41.0,145.7167,12.51,85,91,2.81,AU,2024-04-11 18:22:43
anadyr,64.75,177.4833,-13.72,77,0,4.0,RU,2024-04-11 18:18:32
hobyo,5.3505,48.5268,28.7,78,53,4.68,SO,2024-04-11 18:19:47
talnakh,69.4865,88.3972,-26.0,97,96,3.45,RU,2024-04-11 18:21:41
hamilton,39.1834,-84.5333,18.35,91,75,9.77,US,2024-04-11 18:22:44
salinopolis,-0.6136,-47.3561,27.09,87,100,3.71,BR,2024-04-11 18:22:44
shitanjing,39.2342,106.3439,11.57,31,17,1.03,CN,2024-04-11 18:22:44
belo sur tsiribihina,-19.7,44.55,24.43,82,98,2.13,MG,2024-04-11 18:22:44
nechi,8.0942,-74.7757,32.21,64,40,1.48,CO,2024-04-11 18:22:45
palikir - national government center,6.9248,158.1611,27.47,83,100,1.54,FM,2024-04-11 18:22:45
puerto baquerizo moreno,-0.9,-89.6,27.55,78,40,5.66,EC,2024-04-11 18:22:45
fortaleza,-3.7227,-38.5247,29.48,89,20,3.09,BR,2024-04-11 18:20:01
queenstown,-31.8976,26.8753,4.85,85,0,0.49,ZA,2024-04-11 18:22:46
edinburgh of the seven seas,-37.0676,-12.3116,18.45,95,76,7.38,SH,2024-04-11 18:22:46
constantia,44.1833,28.65,15.39,59,16,2.87,RO,2024-04-11 18:22:46
pangody,65.85,74.4859,-15.74,80,100,10.75,RU,2024-04-11 18:22:46
lodwar,3.1191,35.5973,29.2,60,42,2.69,KE,2024-04-11 18:22:46
guerrero negro,27.9769,-114.0611,23.91,39,66,5.16,MX,2024-04-11 18:22:47
belmonte,-15.8631,-38.8828,26.24,84,59,2.7,BR,2024-04-11 18:22:47
sheridan,44.8333,-106.9173,15.94,28,0,2.68,US,2024-04-11 18:22:47
amos,48.5669,-78.1162,9.7,74,100,3.16,CA,2024-04-11 18:19:20
yanam,16.7333,82.2167,24.84,84,36,1.32,IN,2024-04-11 18:22:47
olyokminsk,60.3736,120.4264,-9.3,84,98,3.22,RU,2024-04-11 18:22:48
safotu,-13.4513,-172.4018,29.71,79,34,5.17,WS,2024-04-11 18:22:48
arkhara,49.4212,130.0842,8.76,46,97,1.79,RU,2024-04-11 18:22:48
roha,18.4333,73.1167,24.01,60,17,1.05,IN,2024-04-11 18:22:48
papatowai,-46.5619,169.4708,7.65,86,100,2.2,NZ,2024-04-11 18:22:49
fale old settlement,-9.3852,-171.2468,29.55,76,23,3.81,TK,2024-04-11 18:21:27
happy valley-goose bay,53.3168,-60.3315,12.17,22,75,5.66,CA,2024-04-11 18:22:49
bocanda,7.0626,-4.4995,26.46,77,100,1.96,CI,2024-04-11 18:22:49
qarazhal,48.0078,70.7903,0.16,79,4,5.59,KZ,2024-04-11 18:22:50
negombo,7.2083,79.8358,27.07,83,26,1.8,LK,2024-04-11 18:22:50
inarajan village,13.2736,144.7484,28.55,89,100,6.47,GU,2024-04-11 18:21:43
mount gambier,-37.8333,140.7667,12.76,66,100,1.47,AU,2024-04-11 18:19:29
vorgashor,67.5833,63.95,-9.55,87,100,10.83,RU,2024-04-11 18:22:50
labrador city,52.9463,-66.9114,3.95,70,100,4.63,CA,2024-04-11 18:22:50
susuman,62.7833,148.1667,-13.34,97,99,1.34,RU,2024-04-11 18:19:49
barreirinha,-2.7933,-57.07,26.36,94,99,1.14,BR,2024-04-11 18:22:51
qaqortoq,60.7167,-46.0333,-6.33,87,63,1.01,GL,2024-04-11 18:18:17
nova vicosa,-17.8919,-39.3719,26.35,81,0,3.19,BR,2024-04-11 18:22:51
prince rupert,54.3161,-130.3201,7.05,70,100,2.57,CA,2024-04-11 18:19:11
portland,45.5234,-122.6762,18.28,42,75,2.24,US,2024-04-11 18:20:50
bandarbeyla,9.4942,50.8122,27.9,84,36,2.7,SO,2024-04-11 18:18:49
xining,36.6167,101.7667,7.96,33,100,0.67,CN,2024-04-11 18:19:19
dumas,35.8656,-101.9732,18.12,25,0,4.12,US,2024-04-11 18:22:52
nova sintra,14.8667,-24.7167,22.65,75,2,7.91,CV,2024-04-11 18:21:42
tura,25.5198,90.2201,23.81,39,99,1.28,IN,2024-04-11 18:19:06
tagiura,32.8817,13.3506,16.71,78,100,8.27,LY,2024-04-11 18:22:52
birjand,32.8663,59.2211,15.26,63,40,4.12,IR,2024-04-11 18:22:52
enewetak,11.3474,162.3373,27.0,79,94,9.66,MH,2024-04-11 18:18:28
santana,-0.0583,-51.1817,27.1,94,75,0.0,BR,2024-04-11 18:21:13
nha trang,12.25,109.1833,26.0,87,60,2.28,VN,2024-04-11 18:22:53
san luis de la loma,17.2706,-100.8939,28.96,59,3,3.03,MX,2024-04-11 18:22:53
waingapu,-9.6567,120.2641,24.35,83,72,3.42,ID,2024-04-11 18:22:53
ola,59.5833,151.2833,-3.81,85,41,1.25,RU,2024-04-11 18:18:51
prieska,-29.6641,22.7474,13.72,37,0,4.35,ZA,2024-04-11 18:22:53
tolga,34.7222,5.3785,12.45,61,99,4.4,DZ,2024-04-11 18:22:53
taber,49.8167,-112.1518,16.91,21,72,4.63,CA,2024-04-11 18:22:53
el calafate,-50.3408,-72.2768,7.37,60,3,2.33,AR,2024-04-11 18:18:32
mizan teferi,6.9833,35.5833,18.66,87,95,1.48,ET,2024-04-11 18:22:54
bredasdorp,-34.5322,20.0403,13.91,71,3,4.45,ZA,2024-04-11 18:18:51
cabo san lucas,22.8909,-109.9124,28.12,39,40,3.6,MX,2024-04-11 18:19:55
whitehorse,60.7161,-135.0538,7.43,33,20,6.17,CA,2024-04-11 18:18:37
makhalino,53.0854,46.2211,13.93,89,100,2.82,RU,2024-04-11 18:20:25
selfoss,63.9331,-20.9971,3.36,98,100,3.04,IS,2024-04-11 18:21:16
camana,-16.6228,-72.7111,22.0,84,54,3.24,PE,2024-04-11 18:22:55
san antonio de pale,-1.4014,5.6325,27.61,78,100,4.51,GQ,2024-04-11 18:22:25
ust-nera,64.5667,143.2,-8.62,94,87,2.53,RU,2024-04-11 18:22:55
fortuna,40.5982,-124.1573,14.4,80,40,6.69,US,2024-04-11 18:19:23
fort st. john,56.2499,-120.8529,9.94,37,100,3.09,CA,2024-04-11 18:21:49
malpe,13.35,74.7167,27.61,76,53,1.92,IN,2024-04-11 18:22:56
laguna,38.421,-121.4238,29.4,44,0,3.6,US,2024-04-11 18:22:56
mejit,10.2753,170.8646,26.79,79,100,8.94,MH,2024-04-11 18:22:56
st. john's,47.5649,-52.7093,4.32,76,0,0.89,CA,2024-04-11 18:18:13
tamandare,-8.7597,-35.1047,27.2,81,54,3.1,BR,2024-04-11 18:22:57
jamestown,42.097,-79.2353,17.77,97,100,4.12,US,2024-04-11 18:18:35
tahe,52.3333,124.7333,2.95,75,100,1.13,CN,2024-04-11 18:22:57
black point,-34.6187,137.8972,15.21,65,88,3.08,AU,2024-04-11 18:22:57
rongelap,11.1635,166.8941,26.91,80,100,9.15,MH,2024-04-11 18:22:02
westport,41.1415,-73.3579,15.97,91,100,1.79,US,2024-04-11 18:18:01
gao,16.6362,1.637,32.4,7,90,4.89,ML,2024-04-11 18:22:58
bhatkal,13.9667,74.5667,26.21,75,51,1.85,IN,2024-04-11 18:22:58
gereida,11.2811,25.1414,27.23,11,2,4.56,SD,2024-04-11 18:22:58
cozumel,20.5083,-86.9458,26.08,94,100,6.17,MX,2024-04-11 18:22:59
xilin hot,43.9667,116.0333,10.19,48,100,2.07,CN,2024-04-11 18:19:15
hawaiian paradise park,19.5933,-154.9731,23.91,96,100,2.06,US,2024-04-11 18:22:59
bol,13.4586,14.7147,28.47,34,70,7.41,TD,2024-04-11 18:22:59
nenjiang,49.1833,125.2167,11.13,66,100,6.59,CN,2024-04-11 18:22:59
pachino,36.7186,15.0907,15.04,65,98,4.48,IT,2024-04-11 18:23:00
kalanwali,29.85,74.95,24.71,22,70,3.29,IN,2024-04-11 18:23:00
ciudad lazaro cardenas,17.9583,-102.2,27.77,61,0,3.69,MX,2024-04-11 18:21:42
porto novo,6.4965,2.6036,29.9,79,73,4.68,BJ,2024-04-11 18:23:00
cherdyn',60.403,56.4787,5.18,88,61,4.68,RU,2024-04-11 18:23:00
kloulklubed,7.0419,134.2556,27.28,73,80,5.6,PW,2024-04-11 18:23:00
antonio enes,-16.2325,39.9086,25.88,87,80,5.09,MZ,2024-04-11 18:18:50
alice springs,-23.7,133.8833,15.68,45,3,2.06,AU,2024-04-11 18:20:36
avarua,-21.2078,-159.775,27.03,89,75,7.72,CK,2024-04-11 18:23:01
the pas,53.8251,-101.2541,4.01,81,100,4.12,CA,2024-04-11 18:18:17
illizi,26.4833,8.4667,22.89,29,1,6.55,DZ,2024-04-11 18:23:01
arraial do cabo,-22.9661,-42.0278,25.61,84,95,2.31,BR,2024-04-11 18:22:12
las heras,-46.5419,-68.9359,12.84,26,0,3.95,AR,2024-04-11 18:21:21
lampasas,31.2168,-98.2336,25.72,33,0,4.02,US,2024-04-11 18:21:39
yarmouth,41.7057,-70.2286,15.26,93,100,3.13,US,2024-04-11 18:22:00
tshikapa,-6.4167,20.8,24.42,82,100,0.58,CD,2024-04-11 18:23:02
iskateley,67.6803,53.1512,1.68,100,100,7.6,RU,2024-04-11 18:23:02
revelstoke,50.9832,-118.2023,10.01,50,75,1.03,CA,2024-04-11 18:21:02
dakhla,23.6848,-15.958,20.6,72,0,5.58,EH,2024-04-11 18:23:02
camayenne,9.535,-13.6878,27.05,69,7,3.09,GN,2024-04-11 18:22:45
malango,-2.9627,119.9001,20.19,100,100,0.42,ID,2024-04-11 18:23:02
afaahiti,-17.75,-149.2833,29.93,86,98,7.48,PF,2024-04-11 18:23:02
quellon,-43.1167,-73.6167,10.37,70,0,2.34,CL,2024-04-11 18:23:02
hithadhoo,-0.6,73.0833,28.55,74,100,2.76,MV,2024-04-11 18:19:40
nuuk,64.1835,-51.7216,-2.66,93,75,3.6,GL,2024-04-11 18:20:00
thompson,55.7435,-97.8558,1.09,75,100,4.12,CA,2024-04-11 18:23:03
aykhal,66.0,111.5,-29.77,100,100,2.69,RU,2024-04-11 18:23:03
thunder bay,48.4001,-89.3168,9.99,87,100,5.14,CA,2024-04-11 18:20:15
al burayqah,30.4062,19.5739,18.06,67,100,3.7,LY,2024-04-11 18:23:03
nouadhibou,20.931,-17.0347,19.99,83,0,3.09,MR,2024-04-11 18:23:03
aguas vermelhas,-15.7472,-41.46,22.48,77,48,1.8,BR,2024-04-11 18:23:04
sao jose da coroa grande,-8.8978,-35.1478,27.62,79,58,3.44,BR,2024-04-11 18:23:04
ilulissat,69.2167,-51.1,-5.99,79,100,1.54,GL,2024-04-11 18:23:04
luderitz,-26.6481,15.1594,21.98,46,0,2.0,NA,2024-04-11 18:18:25
zhangye,38.9342,100.4517,12.13,33,86,2.29,CN,2024-04-11 18:23:04
port alfred,-33.5906,26.891,14.54,83,15,2.68,ZA,2024-04-11 18:23:04
kralendijk,12.15,-68.2667,28.99,70,40,8.23,BQ,2024-04-11 18:23:04
twon-brass,4.3151,6.2418,28.82,77,94,6.7,NG,2024-04-11 18:23:04
chonchi,-42.6128,-73.8092,15.56,69,0,0.63,CL,2024-04-11 18:18:15
strezhevoy,60.7333,77.5889,-17.8,92,45,3.13,RU,2024-04-11 18:23:05
armacao de buzios,-22.7469,-41.8817,26.03,87,46,1.82,BR,2024-04-11 18:19:18
charters towers,-20.1,146.2667,19.78,58,0,2.57,AU,2024-04-11 18:23:05
puerto princesa,9.7392,118.7353,26.99,83,20,3.09,PH,2024-04-11 18:23:05
decorah,43.3033,-91.7857,10.51,76,75,4.12,US,2024-04-11 18:19:10
manakara,-22.1333,48.0167,24.33,91,100,3.42,MG,2024-04-11 18:23:05
quebo,11.3333,-14.9333,24.42,63,0,3.45,GW,2024-04-11 18:23:06
afikpo,5.8931,7.9374,27.97,74,100,4.67,NG,2024-04-11 18:23:06
tazacorte,28.629,-17.9293,23.54,46,100,4.63,ES,2024-04-11 18:20:59
xiaoshi,41.2971,124.1209,8.47,91,54,4.07,CN,2024-04-11 18:23:06
parras de la fuente,25.4167,-102.1833,25.18,12,66,7.34,MX,2024-04-11 18:23:06
new norfolk,-42.7826,147.0587,12.06,84,91,1.18,AU,2024-04-11 18:23:06
ubari,26.5921,12.7805,24.51,15,25,9.37,LY,2024-04-11 18:23:06
gunupur,19.0833,83.8167,25.91,66,69,0.2,IN,2024-04-11 18:23:06
perry,37.2506,-83.1999,18.1,80,71,4.98,US,2024-04-11 18:23:07
college,64.8569,-147.8028,6.36,43,75,4.12,US,2024-04-11 18:23:07
yeppoon,-23.1333,150.7333,21.88,77,0,5.53,AU,2024-04-11 18:23:07
novyy urgal,51.0736,132.5642,0.04,78,41,1.75,RU,2024-04-11 18:18:13
murzuq,25.9155,13.9184,23.4,14,1,9.62,LY,2024-04-11 18:23:07
revda,56.801,59.9303,8.49,81,100,8.01,RU,2024-04-11 18:22:35
graaff-reinet,-32.2522,24.5308,7.73,90,0,1.14,ZA,2024-04-11 18:23:07
sinabang,2.4803,96.3801,26.45,85,98,1.6,ID,2024-04-11 18:21:24
devonport,-41.1667,146.35,11.74,77,62,3.24,AU,2024-04-11 18:20:00
turtas,58.9417,69.1325,-2.38,89,100,6.47,RU,2024-04-11 18:23:08
saldanha,-33.0117,17.9442,17.03,58,7,5.96,ZA,2024-04-11 18:23:08
dursunlu,36.1628,36.1597,15.7,82,27,2.22,TR,2024-04-11 18:23:08
manoharpur,27.3,75.95,24.5,28,62,1.05,IN,2024-04-11 18:23:08
fernie,49.5,-115.0687,15.11,55,97,1.37,CA,2024-04-11 18:23:08
mao,39.8885,4.2658,13.31,82,0,3.09,ES,2024-04-11 18:23:05
zahedan,29.4963,60.8629,22.95,38,0,9.26,IR,2024-04-11 18:23:09
walvis bay,-22.9575,14.5053,17.09,80,5,1.47,NA,2024-04-11 18:23:09
yeniseysk,58.4497,92.1703,-9.73,92,98,2.6,RU,2024-04-11 18:23:09
lata,40.1629,-8.3327,17.26,84,96,1.14,PT,2024-04-11 18:23:09
santa ana de yacuma,-13.75,-65.4333,28.44,77,65,1.83,BO,2024-04-11 18:18:29
olinda,-8.0089,-34.8553,29.85,74,40,3.6,BR,2024-04-11 18:18:42
thannhausen,48.2833,10.4667,8.54,86,82,0.93,DE,2024-04-11 18:19:51
menongue,-14.6585,17.691,19.39,90,99,2.19,AO,2024-04-11 18:23:10
liberal,37.0431,-100.921,18.58,22,0,0.0,US,2024-04-11 18:23:10
luanda,-8.8368,13.2343,26.1,84,100,4.66,AO,2024-04-11 18:19:36
chibougamau,49.9168,-74.3659,9.79,66,40,3.6,CA,2024-04-11 18:23:10
karratha,-20.7377,116.8463,26.72,73,54,2.39,AU,2024-04-11 18:23:10
iquitos,-3.7481,-73.2472,29.02,79,75,1.03,PE,2024-04-11 18:23:10
acarau,-2.8856,-40.12,26.79,85,97,3.46,BR,2024-04-11 18:23:10
rada tilly,-45.9333,-67.5333,12.27,62,0,1.03,AR,2024-04-11 18:23:11
longquan,24.6719,102.1613,15.54,49,0,1.48,CN,2024-04-11 18:23:11
rabaul,-4.1967,152.1721,27.0,80,100,1.54,PG,2024-04-11 18:23:11
taco pozo,-25.6167,-63.2833,12.58,95,100,3.96,AR,2024-04-11 18:23:11
tadine,-21.55,167.8833,23.8,78,100,3.62,NC,2024-04-11 18:23:11
mukalla,14.5425,49.1242,25.9,75,73,1.34,YE,2024-04-11 18:23:11
chipinge,-20.1883,32.6236,15.59,94,98,2.87,ZW,2024-04-11 18:23:11
loen,7.7601,168.2307,27.49,78,96,9.28,MH,2024-04-11 18:23:12
taro,-8.3862,115.28,23.0,99,91,0.38,ID,2024-04-11 18:23:12
taoudenni,22.6783,-3.9836,29.34,10,0,5.15,ML,2024-04-11 18:23:12
carutapera,-1.195,-46.02,26.31,89,64,2.59,BR,2024-04-11 18:18:50
naracoorte,-36.9579,140.7383,13.01,62,100,2.12,AU,2024-04-11 18:23:12
les cayes,18.2,-73.75,27.94,69,3,4.43,HT,2024-04-11 18:23:12
rio grande,-32.035,-52.0986,20.06,61,100,6.77,BR,2024-04-11 18:23:12
sinop,41.7711,34.8709,9.7,91,33,1.49,TR,2024-04-11 18:23:13
pointe aux piments,-20.0628,57.5131,26.96,91,12,3.27,MU,2024-04-11 18:23:13
rumonge,-3.9736,29.4386,22.49,84,58,1.36,BI,2024-04-11 18:23:13
panaba,21.2833,-88.2667,27.75,43,96,7.83,MX,2024-04-11 18:23:13
atafu village,-8.5421,-172.5159,29.5,76,47,3.35,TK,2024-04-11 18:18:30
dhidhdhoo,6.8833,73.1,29.1,72,9,1.29,MV,2024-04-11 18:23:13
wotho,10.1657,166.0102,27.14,78,100,8.58,MH,2024-04-11 18:23:13
amahai,-3.3333,128.9167,25.83,84,97,2.05,ID,2024-04-11 18:23:14
nagqu,31.5,92.0,-1.99,53,100,3.74,CN,2024-04-11 18:23:14
fengxiang,47.5833,130.8333,9.97,77,28,2.3,CN,2024-04-11 18:23:14
isiro,2.7739,27.616,20.27,88,72,1.54,CD,2024-04-11 18:23:14
siluko,6.5386,5.1609,27.01,86,100,1.71,NG,2024-04-11 18:23:14
port lincoln,-34.7333,135.8667,14.74,63,100,3.14,AU,2024-04-11 18:23:15
colonia,50.9333,6.95,14.6,82,100,0.51,DE,2024-04-11 18:22:16
kavieng,-2.5744,150.7967,27.37,80,99,1.63,PG,2024-04-11 18:23:15
wasco,35.5941,-119.341,30.15,29,0,3.09,US,2024-04-11 18:23:15
antsiranana,-12.2787,49.2917,25.07,91,36,1.69,MG,2024-04-11 18:23:16
nyzhnya krynka,48.1135,38.1606,17.78,50,4,2.3,UA,2024-04-11 18:23:16
puerto gaitan,4.3133,-72.0816,36.73,29,33,4.14,CO,2024-04-11 18:19:17
dunedin,-45.8742,170.5036,8.78,97,100,1.34,NZ,2024-04-11 18:23:16
tolanaro,-25.0319,46.9987,23.04,88,40,2.06,MG,2024-04-11 18:21:00
nabire,-3.3667,135.4833,23.88,97,100,1.05,ID,2024-04-11 18:19:12
north bend,43.4065,-124.2243,16.25,71,0,4.63,US,2024-04-11 18:23:17
butembo,0.15,29.2833,15.57,92,93,1.38,CD,2024-04-11 18:23:18
manta,-0.95,-80.7333,29.88,70,20,4.63,EC,2024-04-11 18:21:33
touros,-5.1989,-35.4608,27.09,81,99,3.24,BR,2024-04-11 18:23:18
mata-utu,-13.2816,-176.1745,29.66,75,34,5.08,WF,2024-04-11 18:23:18
mhamid,29.82,-5.72,24.49,7,3,3.74,MA,2024-04-11 18:23:18
bamboo flat,11.7,92.7167,26.96,81,7,2.19,IN,2024-04-11 18:20:06
namibe,-15.1961,12.1522,22.68,72,0,2.55,AO,2024-04-11 18:21:17
port augusta,-32.5,137.7667,14.31,69,99,2.12,AU,2024-04-11 18:23:19
puerto aysen,-45.4,-72.7,8.93,89,0,0.74,CL,2024-04-11 18:19:08
gloucester point,37.254,-76.4969,23.01,75,100,9.26,US,2024-04-11 18:23:19
sitka,57.0531,-135.33,6.94,65,20,6.69,US,2024-04-11 18:23:20
cabedelo,-6.9811,-34.8339,28.37,80,100,4.5,BR,2024-04-11 18:20:49
cadale,2.7603,46.3222,29.1,73,29,5.44,SO,2024-04-11 18:23:20
utrik,11.2278,169.8474,26.66,75,96,9.3,MH,2024-04-11 18:22:52
port alberni,49.2413,-124.8028,8.91,94,100,3.13,CA,2024-04-11 18:23:20
kiunga,-6.1219,141.2906,23.25,100,100,0.39,PG,2024-04-11 18:23:21
moa,20.6569,-74.9403,28.16,70,48,5.78,CU,2024-04-11 18:23:21
tindouf,27.6711,-8.1474,28.25,10,0,2.06,DZ,2024-04-11 18:23:21
gadzhiyevo,69.2551,33.3362,0.11,93,100,11.07,RU,2024-04-11 18:21:13
abepura,-2.6333,140.5833,24.45,100,20,1.03,ID,2024-04-11 18:23:21
vadso,70.0744,29.7487,0.49,93,100,8.23,NO,2024-04-11 18:19:45
halfway,39.6207,-77.7589,19.21,86,100,7.2,US,2024-04-11 18:23:22
saudarkrokur,65.7461,-19.6394,0.46,99,99,3.47,IS,2024-04-11 18:23:22
bakanas,44.8081,76.2772,9.35,61,100,10.46,KZ,2024-04-11 18:23:22
jinchang,38.4953,102.1739,11.39,38,66,1.61,CN,2024-04-11 18:23:23
mercedes,-34.6515,-59.4307,16.03,70,94,3.74,AR,2024-04-11 18:19:40
tazovsky,67.4667,78.7,-22.54,95,53,6.22,RU,2024-04-11 18:20:34
talcahuano,-36.7167,-73.1167,14.82,72,0,3.09,CL,2024-04-11 18:23:23
tamanrasset,22.785,5.5228,23.95,8,0,4.63,DZ,2024-04-11 18:23:23
akrehamn,59.2667,5.1833,6.9,93,100,6.69,NO,2024-04-11 18:19:36
howrah,22.5892,88.3103,26.0,65,40,2.06,IN,2024-04-11 18:22:35
east london,-33.0153,27.9116,15.82,63,44,6.96,ZA,2024-04-11 18:19:33
dryden,49.7833,-92.7503,10.16,57,100,4.12,CA,2024-04-11 18:23:17
rajanpur,29.1035,70.325,27.31,21,73,5.06,PK,2024-04-11 18:23:24
kabansk,52.0486,106.6528,1.65,97,99,0.53,RU,2024-04-11 18:23:25
uturoa,-16.7333,-151.4333,29.12,75,46,7.36,PF,2024-04-11 18:23:25
prokop'yevsk,53.9059,86.719,-2.35,95,100,4.92,RU,2024-04-11 18:23:25
saint-philippe,-21.3585,55.7679,25.77,85,54,2.13,RE,2024-04-11 18:22:26
naze,28.3667,129.4833,19.51,88,88,2.18,JP,2024-04-11 18:23:25
baukau,51.5526,7.2042,14.6,83,100,2.33,DE,2024-04-11 18:23:26
labytnangi,66.6572,66.4183,-9.79,86,100,6.91,RU,2024-04-11 18:22:59
fada,9.5667,8.3,26.92,14,23,0.36,NG,2024-04-11 18:23:27
petawawa,45.9001,-77.3328,9.88,97,100,2.06,CA,2024-04-11 18:23:27
ciudad madero,22.2667,-97.8333,27.11,44,40,8.23,MX,2024-04-11 18:20:29
newnham,-41.3833,147.1333,9.53,93,84,2.06,AU,2024-04-11 18:23:27
dalandzadgad,43.5708,104.425,8.84,37,6,3.62,MN,2024-04-11 18:23:27
puerto quijarro,-17.7833,-57.7667,25.88,91,92,1.31,BO,2024-04-11 18:23:27
jutai,-5.1833,-68.9,26.49,85,95,1.1,BR,2024-04-11 18:23:28
kuta,-8.7233,115.1723,26.97,94,40,1.03,ID,2024-04-11 18:23:28
deba,10.2086,11.3859,32.33,9,61,2.27,NG,2024-04-11 18:23:28
salalah,17.0151,54.0924,28.05,69,40,2.57,OM,2024-04-11 18:23:28
nuku'alofa,-21.1333,-175.2,29.19,79,40,3.09,TO,2024-04-11 18:23:28
malyn,50.7723,29.2383,9.97,71,0,3.22,UA,2024-04-11 18:23:29
port nelson,23.6333,-74.8333,24.75,78,28,7.55,BS,2024-04-11 18:23:29
margate,51.3813,1.3862,12.71,90,62,3.58,GB,2024-04-11 18:21:54
lompoc,34.6391,-120.4579,28.77,72,0,4.63,US,2024-04-11 18:22:13
ararat,39.8317,44.7049,11.19,72,100,2.78,AM,2024-04-11 18:23:29
tuapse,44.1125,39.0742,11.82,91,100,1.06,RU,2024-04-11 18:23:30
patacamaya,-17.2333,-67.9167,12.14,68,94,5.41,BO,2024-04-11 18:23:30
jianshui,23.6363,102.8264,17.91,74,15,1.71,CN,2024-04-11 18:20:29
zaozersk,69.4005,32.4476,-0.6,93,99,8.14,RU,2024-04-11 18:23:30
gremyachevo,54.7503,38.5869,11.2,70,10,3.58,RU,2024-04-11 18:23:30
qamdo,31.1667,97.2333,-2.26,58,35,2.24,CN,2024-04-11 18:18:50
hami,42.8,93.45,13.77,37,1,3.77,CN,2024-04-11 18:23:31
vorkuta,67.5,64.0,-9.38,87,100,12.07,RU,2024-04-11 18:19:14
kalifornsky,60.4183,-151.29,1.3,98,100,2.57,US,2024-04-11 18:23:31
neka,36.6508,53.299,12.73,94,100,6.17,IR,2024-04-11 18:23:31
geraldton,-28.7667,114.6,18.23,72,2,1.54,AU,2024-04-11 18:23:06
bayevo,53.2833,80.7667,-2.61,68,20,3.75,RU,2024-04-11 18:23:32
newman,37.3138,-121.0208,29.6,48,21,1.34,US,2024-04-11 18:23:32
dawei,14.0833,98.2,25.98,84,88,0.97,MM,2024-04-11 18:23:32
mikomeseng,2.1361,10.6132,22.01,99,100,1.67,GQ,2024-04-11 18:23:32
semirom,31.4167,51.5667,3.77,68,2,3.22,IR,2024-04-11 18:23:33
eravur town,7.7782,81.6038,26.11,87,74,1.43,LK,2024-04-11 18:23:33
sao jose,-28.2333,-49.1667,19.62,99,100,0.54,BR,2024-04-11 18:19:23
toliara,-23.35,43.6667,23.69,77,100,4.11,MG,2024-04-11 18:22:48
pyin oo lwin,22.0333,96.4667,21.62,32,0,0.35,MM,2024-04-11 18:23:34
chos malal,-37.3781,-70.2709,14.16,40,7,3.23,AR,2024-04-11 18:18:52
igarka,67.4667,86.5833,-31.66,100,54,0.89,RU,2024-04-11 18:19:30
seven pagodas,12.6264,80.1722,30.05,77,9,3.93,IN,2024-04-11 18:19:34
vilyuysk,63.7553,121.6247,-18.89,96,82,2.68,RU,2024-04-11 18:22:43
labuan,5.2767,115.2417,26.2,100,20,0.0,MY,2024-04-11 18:23:34
katsuura,35.1333,140.3,14.61,87,100,6.13,JP,2024-04-11 18:23:34
xinyuan,37.3,99.0,1.94,22,100,0.85,CN,2024-04-11 18:23:35
brookings,44.3114,-96.7984,12.29,55,75,10.8,US,2024-04-11 18:23:35
arboletes,8.8505,-76.4269,29.44,77,38,4.29,CO,2024-04-11 18:23:35
pyu,18.4833,96.4333,25.42,74,3,1.28,MM,2024-04-11 18:23:35
brisas barra de suchiate,14.55,-92.2167,33.1,62,80,4.21,MX,2024-04-11 18:23:35
ungsang-nodongjagu,42.3578,130.4622,3.42,92,30,1.24,KP,2024-04-11 18:23:35
saipan,15.1355,145.701,29.39,70,40,6.69,MP,2024-04-11 18:23:35
carnarvon,-24.8667,113.6333,21.36,66,93,9.94,AU,2024-04-11 18:23:35
huilong,31.8111,121.655,14.05,99,100,4.02,CN,2024-04-11 18:23:36
polyarnyy,69.1989,33.4478,-0.01,93,100,11.09,RU,2024-04-11 18:19:19
pacocha,-17.5833,-71.3333,21.05,87,22,1.52,PE,2024-04-11 18:23:36
lagos,6.5833,3.75,29.18,86,100,3.05,NG,2024-04-11 18:23:36
chapada dos guimaraes,-15.4606,-55.7497,21.81,92,100,0.33,BR,2024-04-11 18:23:36
ceres,37.5949,-120.9577,29.89,48,0,1.54,US,2024-04-11 18:21:18
duzkoy,40.8728,39.4272,7.21,93,89,0.51,TR,2024-04-11 18:23:36
k'asp'i,41.9252,44.4257,9.36,87,50,0.34,GE,2024-04-11 18:23:36
sisimiut,66.9395,-53.6735,-4.96,88,95,1.14,GL,2024-04-11 18:19:41
meizhou,24.2977,116.1072,20.9,92,27,0.48,CN,2024-04-11 18:23:37
huinan,42.6225,126.2614,10.99,57,35,7.03,CN,2024-04-11 18:23:37
alajarvi,63.0,23.8167,2.24,98,100,1.99,FI,2024-04-11 18:23:37
nemuro,43.3236,145.575,4.53,96,100,6.5,JP,2024-04-11 18:23:37
piti village,13.4626,144.6933,28.5,81,20,5.66,GU,2024-04-11 18:23:37
kotka,60.4664,26.9458,5.74,98,100,8.95,FI,2024-04-11 18:23:37
severo-yeniseyskiy,60.3725,93.0408,-19.68,99,97,0.45,RU,2024-04-11 18:19:54
najran,17.4924,44.1277,28.36,46,26,2.54,SA,2024-04-11 18:23:38
santa terezinha,-29.9002,-50.0904,20.64,85,100,8.51,BR,2024-04-11 18:19:38
kayyerkan,69.3786,87.7439,-25.95,99,69,3.14,RU,2024-04-11 18:23:38
patterson,37.4716,-121.1297,29.86,48,8,1.71,US,2024-04-11 18:23:38
arhavi,41.3492,41.3069,13.95,90,98,1.68,TR,2024-04-11 18:23:38
turuntayevo,52.2,107.6167,2.05,94,100,0.52,RU,2024-04-11 18:23:38
kirakira,-10.4544,161.9205,29.03,70,100,1.49,SB,2024-04-11 18:19:48
palmer,42.1584,-72.3287,14.92,82,100,2.57,US,2024-04-11 18:23:39
siwa oasis,29.2041,25.5195,20.64,40,0,4.99,EG,2024-04-11 18:23:39
sao felix do xingu,-6.6447,-51.995,24.65,93,81,0.36,BR,2024-04-11 18:23:39
mhangura,-16.8939,30.1683,17.58,96,97,2.22,ZW,2024-04-11 18:23:39
ikast,56.1388,9.1577,7.92,100,75,5.14,DK,2024-04-11 18:23:39
kerikeri,-35.2268,173.9474,21.62,87,58,3.15,NZ,2024-04-11 18:20:36
stephenville,32.2207,-98.2023,23.41,32,0,4.63,US,2024-04-11 18:23:39
turar ryskulov,42.5333,70.3333,11.6,73,100,3.78,KZ,2024-04-11 18:23:40
lagoa,39.05,-27.9833,15.61,90,60,2.83,PT,2024-04-11 18:18:49
bria,6.5423,21.9863,26.22,34,9,1.59,CF,2024-04-11 18:23:40
howard springs,-12.497,131.047,23.95,84,100,2.47,AU,2024-04-11 18:23:20
nizhniy odes,63.6445,54.856,1.84,91,100,6.43,RU,2024-04-11 18:23:40
verkhnevilyuysk,63.4453,120.3167,-20.73,97,78,2.22,RU,2024-04-11 18:23:41
zhanaozen,43.3,52.8,12.24,60,1,7.67,KZ,2024-04-11 18:19:55
toamasina,-18.1667,49.3833,26.46,93,100,3.41,MG,2024-04-11 18:23:41
lazaro cardenas,17.9583,-102.2,27.77,61,0,3.69,MX,2024-04-11 18:21:32
sault ste. marie,46.5168,-84.3333,12.31,68,100,3.09,CA,2024-04-11 18:19:51
sao tome,0.3365,6.7273,27.1,79,100,2.57,ST,2024-04-11 18:23:42
tabuk,17.4189,121.4443,22.71,89,48,1.79,PH,2024-04-11 18:23:42
zwedru,6.0667,-8.1281,23.78,94,86,1.24,LR,2024-04-11 18:23:42
whistler,50.1164,-122.9695,4.57,100,100,0.0,CA,2024-04-11 18:23:42
umba,66.6871,34.3429,1.91,81,76,8.14,RU,2024-04-11 18:23:42
ketchikan,55.3422,-131.6461,7.26,76,100,2.57,US,2024-04-11 18:19:52
young,-32.6833,-57.6333,15.14,76,15,3.6,UY,2024-04-11 18:23:43
haiku-pauwela,20.9219,-156.3051,27.01,72,20,7.2,US,2024-04-11 18:19:17
itaituba,-4.2761,-55.9836,25.61,96,99,0.8,BR,2024-04-11 18:23:43
sao vicente,-23.9631,-46.3919,26.1,70,100,0.89,BR,2024-04-11 18:23:43
monopoli,40.9559,17.2896,18.18,77,100,5.2,IT,2024-04-11 18:23:43
mezhdurechenskiy,59.6,65.9333,2.57,77,100,7.07,RU,2024-04-11 18:23:44
woodstock,43.1334,-80.7497,15.24,98,100,5.36,CA,2024-04-11 18:20:18
qui nhon,13.7667,109.2333,24.71,88,99,1.95,VN,2024-04-11 18:23:44
labasa,-16.4167,179.3833,29.56,68,73,1.18,FJ,2024-04-11 18:23:44
salym,60.0625,71.4789,-5.92,83,100,6.21,RU,2024-04-11 18:23:45
bardai,11.65,7.2333,29.0,10,96,4.22,NG,2024-04-11 18:20:45
hilo,19.7297,-155.09,24.03,94,100,2.06,US,2024-04-11 18:22:47
novosmolinskiy,56.2841,43.0507,9.75,76,7,2.6,RU,2024-04-11 18:23:45
bianzhuang,34.8486,118.0447,11.68,93,41,1.94,CN,2024-04-11 18:23:45
kafin hausa,12.2375,9.908,30.52,9,83,4.1,NG,2024-04-11 18:23:46
cascais,38.6979,-9.4215,23.64,70,63,3.02,PT,2024-04-11 18:23:46
puerto lempira,15.2667,-83.7667,30.93,61,55,6.77,HN,2024-04-11 18:23:46
nikolayevsk-on-amure,53.1406,140.73,0.12,96,88,1.79,RU,2024-04-11 18:23:46
taroudant,30.4703,-8.877,23.53,24,4,1.17,MA,2024-04-11 18:23:46
saint-joseph,-21.3667,55.6167,25.21,83,44,0.99,RE,2024-04-11 18:23:47
losal,27.4,74.9167,25.18,31,77,3.03,IN,2024-04-11 18:23:47
richards bay,-28.783,32.0377,18.14,68,86,5.69,ZA,2024-04-11 18:23:47
grand falls-windsor,48.9332,-55.6649,3.99,62,3,2.56,CA,2024-04-11 18:23:47
valdivia,-39.8142,-73.2459,19.05,66,0,1.01,CL,2024-04-11 18:19:22
columbia,34.0007,-81.0348,27.0,62,75,5.66,US,2024-04-11 18:20:01
leh,34.1667,77.5833,-11.32,90,87,2.08,IN,2024-04-11 18:22:45
embi,48.8264,58.1442,7.12,71,37,2.19,KZ,2024-04-11 18:23:48
beloyarskiy,63.7119,66.6722,-5.0,74,100,4.02,RU,2024-04-11 18:22:01
la souterraine,46.2371,1.487,13.17,96,100,1.45,FR,2024-04-11 18:23:49
karatuzskoye,53.6072,92.8667,1.88,92,97,4.47,RU,2024-04-11 18:22:14
pinamalayan,13.0,121.4167,22.46,93,94,2.66,PH,2024-04-11 18:23:49
egilsstadir,65.2653,-14.3948,-0.05,100,100,2.57,IS,2024-04-11 18:23:49
remire-montjoly,4.9167,-52.2667,28.02,83,75,3.6,GF,2024-04-11 18:23:49
sandnessjoen,66.0217,12.6316,3.06,81,75,0.51,NO,2024-04-11 18:23:50
purpe,64.4803,76.6897,-18.81,90,100,8.57,RU,2024-04-11 18:23:50
lorengau,-2.0226,147.2712,27.2,80,100,1.39,PG,2024-04-11 18:23:50
kidal,18.4411,1.4078,31.37,10,82,5.54,ML,2024-04-11 18:23:50
malvan,16.0667,73.4667,25.62,69,9,4.17,IN,2024-04-11 18:23:50
hasaki,35.7333,140.8333,16.27,79,100,5.81,JP,2024-04-11 18:20:47
rufino,-34.2683,-62.7126,12.97,49,90,5.66,AR,2024-04-11 18:23:51
poltava,49.5937,34.5407,17.54,71,99,4.58,UA,2024-04-11 18:23:51
diawara,15.022,-12.5437,35.82,21,66,0.56,SN,2024-04-11 18:23:51
hirara,24.8,125.2833,22.15,94,92,2.06,JP,2024-04-11 18:23:51
nogliki,51.8333,143.1667,3.52,88,32,5.36,RU,2024-04-11 18:23:52
muswellbrook,-32.2667,150.9,14.02,87,22,0.19,AU,2024-04-11 18:23:52
tamiahua,21.2667,-97.45,26.93,49,0,5.7,MX,2024-04-11 18:21:20
lang suan,9.9456,99.0785,26.58,83,36,2.21,TH,2024-04-11 18:23:52
serhiyivka,46.0272,30.3768,16.81,62,73,2.32,UA,2024-04-11 18:23:52
mount isa,-20.7333,139.5,17.87,42,0,2.57,AU,2024-04-11 18:19:11
aioun,16.6614,-9.6149,36.58,13,88,4.41,MR,2024-04-11 18:23:53
ivdel',60.6911,60.4206,5.57,90,100,3.58,RU,2024-04-11 18:23:53
burang,30.25,81.1667,-10.14,94,96,1.02,CN,2024-04-11 18:23:53
tralee,52.2704,-9.7026,11.78,97,100,2.59,IE,2024-04-11 18:20:06
napier,-39.4833,176.9167,19.04,82,100,4.47,NZ,2024-04-11 18:23:54
saint-francois,46.4154,3.9054,8.14,88,0,1.03,FR,2024-04-11 18:23:54
el tigre,8.8875,-64.2454,34.7,27,2,4.24,VE,2024-04-11 18:23:54
myskhako,44.6714,37.7433,13.1,88,98,1.16,RU,2024-04-11 18:23:54
changyon,38.2508,125.0961,9.57,82,0,2.14,KP,2024-04-11 18:23:55
youkounkoun,12.5333,-13.1333,35.66,26,59,1.3,GN,2024-04-11 18:23:55
al bardiyah,31.7561,25.0865,15.77,81,29,3.35,LY,2024-04-11 18:21:19
chas,23.6333,86.1667,23.85,48,10,2.23,IN,2024-04-11 18:23:55
darwin,-12.4611,130.8418,23.99,81,75,3.6,AU,2024-04-11 18:20:03
vozhega,60.4725,40.2213,5.62,63,33,5.56,RU,2024-04-11 18:19:16
harper,4.375,-7.7169,26.67,83,100,2.8,LR,2024-04-11 18:23:56
frederico westphalen,-27.3592,-53.3944,19.77,88,98,3.69,BR,2024-04-11 18:23:56
fort mcmurray,56.7268,-111.381,13.77,28,75,5.14,CA,2024-04-11 18:23:49
amga,60.8953,131.9608,-1.38,96,100,2.42,RU,2024-04-11 18:19:13
erenhot,43.6475,111.9767,11.56,42,95,3.61,CN,2024-04-11 18:23:57
shadrinsk,56.0852,63.6335,5.98,78,100,6.86,RU,2024-04-11 18:23:57
winnemucca,40.973,-117.7357,24.03,22,20,4.12,US,2024-04-11 18:23:57
nishinoomote,30.7333,131.0,18.94,81,100,8.67,JP,2024-04-11 18:23:57
chui,-33.6971,-53.4616,17.53,58,97,3.8,UY,2024-04-11 18:23:57
cova figueira,14.8905,-24.2934,17.61,70,0,3.24,CV,2024-04-11 18:23:58
weno,7.4515,151.8468,28.97,84,100,3.6,FM,2024-04-11 18:21:07
neryungri,56.6709,124.6491,-4.34,97,100,0.12,RU,2024-04-11 18:22:15
wellington,-41.2866,174.7756,17.21,91,100,8.23,NZ,2024-04-11 18:20:24
bikenibeu village,1.3673,173.1241,29.98,79,20,3.09,KI,2024-04-11 18:23:59
guajara,-2.9667,-57.6667,26.15,94,99,0.34,BR,2024-04-11 18:23:59
kingston,17.997,-76.7936,30.53,71,20,10.8,JM,2024-04-11 18:19:18
sanctuary point,-35.1114,150.629,19.3,77,100,1.07,AU,2024-04-11 18:23:59
kargil,34.5667,76.1,-5.99,79,100,0.49,IN,2024-04-11 18:23:59
kipushi,-11.7667,27.2333,17.82,99,100,0.96,CD,2024-04-11 18:24:00
blythe,33.6103,-114.5964,33.25,9,0,2.06,US,2024-04-11 18:24:00
christchurch,-43.5333,172.6333,11.41,94,100,8.75,NZ,2024-04-11 18:23:00
tarfaya,27.9358,-12.9218,20.22,76,0,7.53,MA,2024-04-11 18:24:00
poykovskiy,61.2333,73.3333,-10.84,52,0,4.0,RU,2024-04-11 18:24:00
hiratacho,35.4333,132.8167,12.01,87,12,2.06,JP,2024-04-11 18:24:01
timimoun,29.2639,0.231,21.21,13,0,4.12,DZ,2024-04-11 18:24:01
lago da pedra,-4.3333,-45.1667,25.05,96,99,0.78,BR,2024-04-11 18:24:01
lahan,26.7296,86.4951,25.65,29,8,3.42,NP,2024-04-11 18:24:01
isabela,6.7085,121.9711,25.03,83,70,1.01,PH,2024-04-11 18:24:01
san fernando de monte cristi,19.8667,-71.65,27.51,71,4,10.98,DO,2024-04-11 18:24:02
along,28.1667,94.7667,14.26,74,100,0.8,IN,2024-04-11 18:24:02
pikine,14.75,-17.4,22.47,88,0,3.09,SN,2024-04-11 18:24:02
mae ramat,16.984,98.5166,27.11,87,46,0.38,TH,2024-04-11 18:24:02
pemangkat,1.1667,108.9667,25.51,91,63,2.38,ID,2024-04-11 18:24:02
petukhovo,55.0692,67.9019,0.81,85,77,4.84,RU,2024-04-11 18:24:03
punta del este,-34.9667,-54.95,16.6,73,40,3.6,UY,2024-04-11 18:20:55
kapa'a,22.0752,-159.319,26.99,84,100,2.06,US,2024-04-11 18:24:03
saint-pierre,-21.3393,55.4781,25.82,73,0,2.57,RE,2024-04-11 18:22:39
presque isle,46.6811,-68.0159,8.24,66,100,5.14,US,2024-04-11 18:22:27
cambridge,43.3601,-80.3127,12.8,99,100,4.63,CA,2024-04-11 18:21:23
nar'yan-mar,67.6713,53.087,1.73,100,100,7.6,RU,2024-04-11 18:21:35
lethem,3.3803,-59.7968,31.52,49,89,5.44,GY,2024-04-11 18:24:04
kone,-21.0595,164.8658,23.4,86,100,0.49,NC,2024-04-11 18:23:06
lewiston orchards,46.3804,-116.9754,20.28,54,0,0.89,US,2024-04-11 18:21:26
xiva,41.3783,60.3639,14.99,48,100,7.91,UZ,2024-04-11 18:24:05
khandyga,62.6667,135.6,-4.91,90,99,2.92,RU,2024-04-11 18:24:05
kotabumi,-4.8333,104.9,23.94,96,90,1.15,ID,2024-04-11 18:24:05
broome,42.2506,-75.833,17.21,87,100,8.23,US,2024-04-11 18:22:52
humberto de campos,-2.5983,-43.4611,25.84,95,100,1.43,BR,2024-04-11 18:24:06
orchomenos,38.4929,22.9796,20.06,49,2,2.24,GR,2024-04-11 18:24:06
iquique,-20.2208,-70.1431,22.02,82,50,2.26,CL,2024-04-11 18:19:21
cill airne,52.05,-9.5167,11.65,98,100,2.42,IE,2024-04-11 18:24:06
antofagasta,-23.65,-70.4,19.6,88,94,3.61,CL,2024-04-11 18:19:28
mairi,-11.7114,-40.1489,23.58,89,52,2.8,BR,2024-04-11 18:24:07
alamos,27.0167,-108.9333,33.14,7,97,3.57,MX,2024-04-11 18:24:07
ceeldheer,3.8488,47.1806,28.23,75,49,4.82,SO,2024-04-11 18:24:07
baise city,23.8997,106.6133,26.3,99,100,1.2,CN,2024-04-11 18:24:07
veraval,20.9,70.3667,24.6,83,5,4.8,IN,2024-04-11 18:22:19
hailar,49.2,119.7,5.34,87,100,3.29,CN,2024-04-11 18:24:08
camalu,30.85,-116.0667,19.14,62,3,4.3,MX,2024-04-11 18:24:08
morris,40.8334,-74.5329,16.52,89,100,4.12,US,2024-04-11 18:22:40
lerwick,60.1545,-1.1494,9.0,84,100,7.27,GB,2024-04-11 18:23:34
bata,1.8639,9.7658,26.15,89,100,1.99,GQ,2024-04-11 18:24:09
kadnikov,59.5022,40.338,8.23,69,76,4.96,RU,2024-04-11 18:24:09
matias romero,16.8833,-95.0333,32.26,22,88,9.51,MX,2024-04-11 18:24:09
san patricio,28.017,-97.5169,31.97,21,0,5.13,US,2024-04-11 18:24:09
bengkulu,-3.8004,102.2655,24.68,95,100,2.16,ID,2024-04-11 18:20:40
north ward,-19.2454,146.8075,21.95,78,0,0.0,AU,2024-04-11 18:24:10
makhambet,47.6667,51.5833,12.89,58,46,4.86,KZ,2024-04-11 18:24:10
dodge city,37.7528,-100.0171,20.69,23,0,4.12,US,2024-04-11 18:24:10
sao joao da barra,-21.6403,-41.0511,25.05,85,10,3.01,BR,2024-04-11 18:19:23
nuevo casas grandes,30.4167,-107.9167,27.54,7,21,6.88,MX,2024-04-11 18:24:11
ixtapa,20.7,-105.2,24.57,65,40,6.17,MX,2024-04-11 18:24:11
luang namtha,20.9497,101.4011,23.16,53,59,0.47,LA,2024-04-11 18:24:11
ortigueira,-24.2083,-50.9494,23.37,62,99,1.36,BR,2024-04-11 18:24:12
