City,Lat,Lng,Max Temp,Humidity,Cloudiness,Wind Speed,Country,Date
saipan,15.1355,145.701,26.39,83,40,5.14,MP,2024-04-11 15:25:43
newman,37.3138,-121.0208,25.58,52,15,0.89,US,2024-04-11 15:25:43
hawaiian paradise park,19.5933,-154.9731,22.8,98,100,3.09,US,2024-04-11 15:25:44
west island,-12.1568,96.8225,25.99,83,68,3.09,CC,2024-04-11 15:25:44
howrah,22.5892,88.3103,27.0,61,40,0.0,IN,2024-04-11 15:25:44
bilibino,68.0546,166.4372,-18.64,99,100,0.49,RU,2024-04-11 15:25:44
waitangi,-43.9535,-176.5597,16.01,96,100,4.02,NZ,2024-04-11 15:25:44
cidreira,-30.1811,-50.2056,20.0,87,100,8.27,BR,2024-04-11 15:25:45
ancud,-41.8697,-73.8203,14.72,50,0,2.28,CL,2024-04-11 15:25:45
port-aux-francais,-49.35,70.2167,5.95,96,99,7.23,TF,2024-04-11 15:25:45
puerto natales,-51.7236,-72.4875,10.25,53,0,5.66,CL,2024-04-11 15:25:45
hilo,19.7297,-155.09,22.92,99,100,3.6,US,2024-04-11 15:22:44
capacuaro,19.55,-102.05,21.65,34,0,0.0,MX,2024-04-11 15:25:46
yellowknife,62.456,-114.3525,3.01,79,75,6.69,CA,2024-04-11 15:25:46
olonkinbyen,70.9221,-8.7187,-8.44,76,100,4.6,SJ,2024-04-11 15:25:21
ust-nera,64.5667,143.2,-14.47,97,85,2.87,RU,2024-04-11 15:25:46
arraial do cabo,-22.9661,-42.0278,28.98,74,40,4.12,BR,2024-04-11 15:25:05
puerto ayora,-0.7393,-90.3518,29.98,95,27,2.68,EC,2024-04-11 15:25:47
paita,-5.0892,-81.1144,25.81,69,77,5.81,PE,2024-04-11 15:25:47
adamstown,-25.066,-130.1015,21.34,55,2,7.33,PN,2024-04-11 15:25:47
blackmans bay,-43.0167,147.3167,10.07,87,65,0.45,AU,2024-04-11 15:25:47
howard springs,-12.497,131.047,23.95,87,100,2.03,AU,2024-04-11 15:25:48
tiksi,71.6872,128.8694,-28.15,95,23,5.54,RU,2024-04-11 15:25:48
lospalos,-8.5186,127.0025,20.52,90,17,0.61,TL,2024-04-11 15:25:48
palmer,42.1584,-72.3287,14.02,80,100,2.57,US,2024-04-11 15:25:42
kapuskasing,49.4169,-82.4331,18.0,34,100,5.66,CA,2024-04-11 15:25:48
tura,25.5198,90.2201,24.96,36,100,1.29,IN,2024-04-11 15:25:49
barranca,-10.75,-77.7667,24.26,71,100,4.88,PE,2024-04-11 15:25:49
isafjordur,66.0755,-23.124,-2.32,95,100,14.43,IS,2024-04-11 15:25:49
iqaluit,63.7506,-68.5145,-2.15,68,100,1.03,CA,2024-04-11 15:24:53
duong dong,10.2167,103.9667,27.0,83,40,0.0,VN,2024-04-11 15:25:50
edinburgh of the seven seas,-37.0676,-12.3116,18.05,96,95,4.62,SH,2024-04-11 15:25:21
port alfred,-33.5906,26.891,15.1,82,5,2.68,ZA,2024-04-11 15:25:50
coquimbo,-29.9533,-71.3436,13.85,94,100,3.6,CL,2024-04-11 15:23:17
jiazi,22.8779,116.067,21.65,85,4,1.46,CN,2024-04-11 15:25:50
ribeira grande,38.5167,-28.7,16.22,88,40,2.57,PT,2024-04-11 15:25:51
labuan,5.2767,115.2417,26.2,94,20,0.0,MY,2024-04-11 15:25:51
utrik,11.2278,169.8474,26.71,75,100,9.16,MH,2024-04-11 15:25:51
kodiak,57.79,-152.4072,-0.27,93,100,2.06,US,2024-04-11 15:25:51
qamdo,31.1667,97.2333,-0.83,54,90,1.85,CN,2024-04-11 15:25:51
prado,-17.3411,-39.2208,28.22,70,35,4.24,BR,2024-04-11 15:25:52
maua,-23.6678,-46.4614,23.33,92,91,4.57,BR,2024-04-11 15:25:05
afaahiti,-17.75,-149.2833,28.93,85,100,7.76,PF,2024-04-11 15:23:16
st. john's,47.5649,-52.7093,7.31,68,20,3.6,CA,2024-04-11 15:22:44
bethel,41.3712,-73.414,16.23,85,100,2.57,US,2024-04-11 15:23:53
salavan,15.7167,106.4167,25.25,66,99,1.44,LA,2024-04-11 15:25:53
chudovo,59.1167,31.6833,10.59,55,100,5.63,RU,2024-04-11 15:25:53
iskateley,67.6803,53.1512,1.68,100,100,7.6,RU,2024-04-11 15:25:53
obihiro,42.9172,143.2044,6.38,57,100,0.53,JP,2024-04-11 15:25:53
chabahar,25.2919,60.643,26.89,68,12,1.98,IR,2024-04-11 15:25:54
hithadhoo,-0.6,73.0833,29.12,73,100,2.46,MV,2024-04-11 15:25:54
petropavlovsk-kamchatsky,53.0452,158.6483,-1.67,71,0,11.62,RU,2024-04-11 15:23:31
grytviken,-54.2811,-36.5092,0.42,74,23,5.36,GS,2024-04-11 15:25:54
lobujya,27.95,86.8167,-17.54,82,37,2.98,NP,2024-04-11 15:25:54
bako,5.7833,36.5667,19.15,84,4,1.72,ET,2024-04-11 15:25:55
thompson,55.7435,-97.8558,2.09,69,75,5.14,CA,2024-04-11 15:25:55
marshfield,44.6689,-90.1718,16.38,76,100,5.66,US,2024-04-11 15:25:55
bay harbor,30.1471,-85.6146,22.04,78,75,11.32,US,2024-04-11 15:25:55
tomatlan,19.9333,-105.25,33.12,30,15,4.63,MX,2024-04-11 15:25:56
liwale,-9.7667,37.9333,22.62,97,100,1.32,TZ,2024-04-11 15:25:56
la mesa,32.7678,-117.0231,30.89,50,0,5.14,US,2024-04-11 15:25:56
valdosta,30.8327,-83.2785,28.16,44,0,9.26,US,2024-04-11 15:25:56
lihue,21.9789,-159.3672,26.58,86,100,3.09,US,2024-04-11 15:25:57
vilyuchinsk,52.9306,158.4028,-0.85,81,6,4.71,RU,2024-04-11 15:25:57
akrehamn,59.2667,5.1833,8.56,81,20,4.12,NO,2024-04-11 15:25:57
egilsstadir,65.2653,-14.3948,0.95,93,100,4.12,IS,2024-04-11 15:25:57
sabzevar,36.2126,57.6819,15.29,61,1,3.07,IR,2024-04-11 15:25:58
trujillo,-8.116,-79.03,22.98,83,37,5.14,PE,2024-04-11 15:23:37
aleksandrov gay,50.147,48.5704,15.24,56,53,4.34,RU,2024-04-11 15:25:58
college,64.8569,-147.8028,3.43,58,100,2.06,US,2024-04-11 15:25:31
ocean shores,46.9737,-124.1563,11.88,88,100,2.24,US,2024-04-11 15:23:11
jamestown,42.097,-79.2353,20.77,82,100,4.63,US,2024-04-11 15:24:10
port elizabeth,-33.918,25.5701,15.05,84,0,5.14,ZA,2024-04-11 15:25:59
port shepstone,-30.7414,30.455,18.05,57,0,9.18,ZA,2024-04-11 15:25:59
remire-montjoly,4.9167,-52.2667,30.02,74,75,7.72,GF,2024-04-11 15:25:59
domoni,-12.2569,44.5319,27.84,83,100,2.14,KM,2024-04-11 15:25:59
kavaratti,10.5669,72.642,29.39,69,0,3.43,IN,2024-04-11 15:26:00
forshaga,59.5254,13.4813,12.29,71,0,5.66,SE,2024-04-11 15:26:00
port lincoln,-34.7333,135.8667,14.14,75,100,3.2,AU,2024-04-11 15:26:00
carnarvon,-24.8667,113.6333,21.69,63,100,10.35,AU,2024-04-11 15:26:00
mount pearl,47.5166,-52.7813,6.85,66,20,3.6,CA,2024-04-11 15:26:01
papatowai,-46.5619,169.4708,7.29,88,100,2.88,NZ,2024-04-11 15:26:01
nioki,-2.7167,17.6833,27.05,73,100,1.14,CD,2024-04-11 15:26:01
whitehorse,60.7161,-135.0538,5.43,44,20,3.6,CA,2024-04-11 15:25:28
puerto francisco de orellana,-0.4667,-76.9667,33.03,58,40,2.06,EC,2024-04-11 15:26:01
fortuna,40.5982,-124.1573,14.4,84,75,3.6,US,2024-04-11 15:26:02
atafu village,-8.5421,-172.5159,29.32,77,90,3.67,TK,2024-04-11 15:21:04
hermanus,-34.4187,19.2345,14.89,70,12,7.9,ZA,2024-04-11 15:26:02
manado,1.487,124.8455,24.43,94,20,1.03,ID,2024-04-11 15:21:06
portland,45.5234,-122.6762,16.56,59,75,2.06,US,2024-04-11 15:26:02
puerto baquerizo moreno,-0.9,-89.6,28.55,79,40,4.12,EC,2024-04-11 15:22:18
goderich,43.7501,-81.7165,12.73,100,100,7.2,CA,2024-04-11 15:24:32
constantia,44.1833,28.65,15.39,64,2,1.25,RO,2024-04-11 15:22:02
lata,40.1629,-8.3327,18.84,73,89,1.55,PT,2024-04-11 15:26:04
eyl,7.9803,49.8164,28.21,82,100,4.06,SO,2024-04-11 15:26:04
hinton,53.4001,-117.5857,9.79,31,100,1.74,CA,2024-04-11 15:26:04
naze,28.3667,129.4833,17.51,85,81,0.71,JP,2024-04-11 15:22:31
xining,36.6167,101.7667,9.0,29,99,0.53,CN,2024-04-11 15:26:05
nacala,-14.5428,40.6728,26.77,85,60,2.02,MZ,2024-04-11 15:26:05
beyneu,45.3167,55.2,11.84,59,0,7.61,KZ,2024-04-11 15:26:05
harstad,68.799,16.5293,2.66,97,100,12.52,NO,2024-04-11 15:26:06
tokonou,9.65,-9.7833,28.65,48,99,1.57,GN,2024-04-11 15:26:06
zyrya,40.3661,50.2917,15.05,64,100,12.11,AZ,2024-04-11 15:26:06
fort bragg,35.139,-79.006,23.91,66,100,6.69,US,2024-04-11 15:26:07
quatre cocos,-20.2078,57.7625,26.72,87,9,2.1,MU,2024-04-11 15:26:07
dajal,29.5577,70.3762,29.14,19,58,4.58,PK,2024-04-11 15:26:07
jonquiere,48.4165,-71.2488,7.06,70,100,4.65,CA,2024-04-11 15:23:16
ylojarvi,61.5563,23.5961,4.23,96,100,5.36,FI,2024-04-11 15:26:08
mokhsogollokh,61.4681,128.9203,-1.54,96,100,1.35,RU,2024-04-11 15:26:08
kailua-kona,19.6406,-155.9956,26.44,83,75,3.09,US,2024-04-11 15:26:08
okha,53.5739,142.9478,-1.53,96,51,4.02,RU,2024-04-11 15:26:08
parauna,-16.9478,-50.4486,26.65,72,99,1.57,BR,2024-04-11 15:26:08
alavus,62.5833,23.6167,3.95,98,100,2.58,FI,2024-04-11 15:26:09
kayanza,-3.0667,29.6667,15.92,96,29,0.45,BI,2024-04-11 15:26:09
syumsi,57.1111,51.6149,10.52,92,100,4.51,RU,2024-04-11 15:26:09
vengerovo,55.6848,76.7471,-6.92,89,33,2.42,RU,2024-04-11 15:26:09
la manga del mar menor,37.6413,-0.7165,17.36,74,0,1.54,ES,2024-04-11 15:26:09
bredasdorp,-34.5322,20.0403,14.57,67,0,4.61,ZA,2024-04-11 15:26:10
anadyr,64.75,177.4833,-15.72,77,0,3.58,RU,2024-04-11 15:26:10
katsuura,35.1333,140.3,14.06,87,100,6.32,JP,2024-04-11 15:26:10
udachny,66.4167,112.4,-28.08,100,99,2.21,RU,2024-04-11 15:26:10
port mathurin,-19.6833,63.4167,27.17,75,0,4.48,MU,2024-04-11 15:26:11
dudinka,69.4058,86.1778,-25.77,100,80,3.14,RU,2024-04-11 15:26:11
cabo san lucas,22.8909,-109.9124,28.12,40,20,4.63,MX,2024-04-11 15:22:52
tofol,5.3248,163.0078,27.08,85,100,6.85,FM,2024-04-11 15:26:11
invercargill,-46.4,168.35,7.79,90,100,2.65,NZ,2024-04-11 15:22:17
ushuaia,-54.8,-68.3,8.81,57,0,11.83,AR,2024-04-11 15:23:43
lebu,-37.6167,-73.65,14.78,66,1,2.88,CL,2024-04-11 15:26:12
noosa heads,-26.3833,153.15,18.95,78,0,7.45,AU,2024-04-11 15:26:13
sinabang,2.4803,96.3801,27.12,84,100,1.46,ID,2024-04-11 15:26:13
lompoc,34.6391,-120.4579,28.21,62,0,4.12,US,2024-04-11 15:26:13
stanley,54.868,-1.6985,13.77,81,40,3.6,GB,2024-04-11 15:26:13
nishinoomote,30.7333,131.0,18.46,86,100,8.85,JP,2024-04-11 15:26:13
ilulissat,69.2167,-51.1,-5.99,79,75,2.06,GL,2024-04-11 15:26:14
enewetak,11.3474,162.3373,26.96,79,88,10.35,MH,2024-04-11 15:21:16
namibe,-15.1961,12.1522,22.54,76,1,4.42,AO,2024-04-11 15:26:14
wanning,18.8003,110.3967,23.94,95,18,0.39,CN,2024-04-11 15:26:14
lozuvatka,48.0571,33.2858,20.9,46,17,1.08,UA,2024-04-11 15:26:15
yarmouth,41.7057,-70.2286,13.97,94,100,3.09,US,2024-04-11 15:26:15
sept-iles,50.2001,-66.3821,2.81,82,100,5.14,CA,2024-04-11 15:22:16
tidjikja,18.5564,-11.4271,35.92,12,0,4.28,MR,2024-04-11 15:22:38
georgetown,5.4112,100.3354,28.86,81,20,0.51,MY,2024-04-11 15:23:44
muli,2.9167,73.5667,29.77,68,7,1.23,MV,2024-04-11 15:21:21
margaret river,-33.95,115.0667,13.39,76,5,5.31,AU,2024-04-11 15:26:16
bandon,51.7469,-8.7425,11.77,96,100,7.8,IE,2024-04-11 15:26:16
sitka,57.0531,-135.33,5.94,70,20,4.63,US,2024-04-11 15:25:37
albany,42.6001,-73.9662,14.4,80,100,2.24,US,2024-04-11 15:26:10
constitucion,-35.3333,-72.4167,15.85,70,16,2.74,CL,2024-04-11 15:26:17
shadrinsk,56.0852,63.6335,5.64,72,100,6.5,RU,2024-04-11 15:26:17
inhambane,-23.865,35.3833,21.99,83,75,3.09,MZ,2024-04-11 15:26:17
maardu,59.4767,25.025,7.79,94,100,6.69,EE,2024-04-11 15:26:18
dunedin,-45.8742,170.5036,8.22,99,100,2.68,NZ,2024-04-11 15:26:18
zhaqsy,51.9083,67.3133,0.08,78,9,2.24,KZ,2024-04-11 15:26:18
badger,64.8,-147.5333,3.38,60,100,2.06,US,2024-04-11 15:26:18
hede,33.7681,120.2517,12.32,91,100,2.97,CN,2024-04-11 15:24:55
sur,22.5667,59.5289,30.42,48,100,5.35,OM,2024-04-11 15:26:19
san antonio de pale,-1.4014,5.6325,26.78,84,100,8.32,GQ,2024-04-11 15:26:19
longyearbyen,78.2186,15.6401,-15.09,72,0,5.14,SJ,2024-04-11 15:26:19
saint-pierre,-21.3393,55.4781,25.82,73,0,2.06,RE,2024-04-11 15:23:08
crane,31.3974,-102.3501,24.27,17,0,4.51,US,2024-04-11 15:26:20
kem',64.9555,34.5793,3.34,79,6,9.45,RU,2024-04-11 15:26:20
kingston,17.997,-76.7936,31.76,65,20,10.8,JM,2024-04-11 15:24:06
tsiombe,-25.3,45.4833,21.38,82,92,2.75,MG,2024-04-11 15:26:20
sterling,39.0062,-77.4286,21.43,75,100,7.72,US,2024-04-11 15:23:44
vadso,70.0744,29.7487,1.49,86,40,7.2,NO,2024-04-11 15:26:21
sao joao da barra,-21.6403,-41.0511,30.05,78,3,4.39,BR,2024-04-11 15:23:20
susuman,62.7833,148.1667,-20.01,100,99,0.45,RU,2024-04-11 15:26:21
zouerate,22.7187,-12.4521,34.52,5,0,3.72,MR,2024-04-11 15:26:21
bratsk,56.1325,101.6142,-0.73,93,100,0.56,RU,2024-04-11 15:26:22
hinthada,17.6333,95.4667,29.22,48,4,1.92,MM,2024-04-11 15:26:22
touros,-5.1989,-35.4608,28.31,77,93,3.28,BR,2024-04-11 15:25:21
baikonur,45.6167,63.3167,10.82,59,56,8.03,KZ,2024-04-11 15:26:22
dalandzadgad,43.5708,104.425,10.07,34,6,4.73,MN,2024-04-11 15:26:22
edd,13.9297,41.6925,28.61,80,0,4.71,ER,2024-04-11 15:26:23
chibougamau,49.9168,-74.3659,13.79,44,75,4.12,CA,2024-04-11 15:26:23
bethanie,-26.4833,17.15,22.86,25,0,4.2,NA,2024-04-11 15:21:25
vorgashor,67.5833,63.95,-9.55,87,100,11.9,RU,2024-04-11 15:26:23
cabedelo,-6.9811,-34.8339,30.37,78,100,4.68,BR,2024-04-11 15:26:24
tolanaro,-25.0319,46.9987,24.04,83,40,3.09,MG,2024-04-11 15:26:24
mahriz,31.5917,54.4318,20.28,29,0,4.17,IR,2024-04-11 15:26:24
salalah,17.0151,54.0924,28.05,74,75,3.6,OM,2024-04-11 15:26:25
aasiaat,68.7098,-52.8699,-4.65,83,100,1.31,GL,2024-04-11 15:26:25
acarau,-2.8856,-40.12,28.25,82,90,3.61,BR,2024-04-11 15:25:26
morehead city,34.7229,-76.726,21.12,86,100,8.75,US,2024-04-11 15:24:19
mar del plata,-38.0023,-57.5575,13.3,66,75,3.09,AR,2024-04-11 15:22:04
port augusta,-32.5,137.7667,13.69,72,96,3.22,AU,2024-04-11 15:26:26
dampit,-8.2116,112.7493,22.32,97,100,0.6,ID,2024-04-11 15:26:26
rosario do sul,-30.2583,-54.9142,17.51,80,100,6.89,BR,2024-04-11 15:23:47
lima,-12.0432,-77.0282,27.14,61,0,5.14,PE,2024-04-11 15:23:44
petauke,-14.2426,31.3253,19.42,90,100,5.48,ZM,2024-04-11 15:26:27
kandahar,31.0,65.75,23.48,27,98,7.89,AF,2024-04-11 15:26:27
la breita,-4.2608,-80.8875,30.67,55,75,3.94,PE,2024-04-11 15:26:27
hadibu,12.65,54.0333,28.07,77,98,2.33,YE,2024-04-11 15:26:27
barah,13.7,30.3667,27.45,10,8,5.15,SD,2024-04-11 15:26:28
fisterra,42.9049,-9.2629,18.75,72,100,2.07,ES,2024-04-11 15:26:28
binghamton,42.0987,-75.918,18.33,83,100,4.47,US,2024-04-11 15:26:28
maluso,6.543,121.8753,26.55,81,100,1.27,PH,2024-04-11 15:26:28
lycksele,64.5954,18.6735,4.93,60,100,3.6,SE,2024-04-11 15:26:28
selkirk,50.1436,-96.8845,11.04,70,100,6.52,CA,2024-04-11 15:26:29
bodaybo,57.8506,114.1933,-1.66,98,100,1.38,RU,2024-04-11 15:26:29
daru,-9.0763,143.2092,26.88,84,100,7.64,PG,2024-04-11 15:26:29
paracuru,-3.41,-39.0306,28.95,83,85,3.35,BR,2024-04-11 15:26:29
mirny,62.5353,113.9611,-26.27,100,99,1.8,RU,2024-04-11 15:26:29
nogliki,51.8333,143.1667,3.52,88,0,5.36,RU,2024-04-11 15:26:29
kidal,18.4411,1.4078,34.97,8,100,4.22,ML,2024-04-11 15:26:30
merizo village,13.2658,144.6691,27.31,91,100,5.96,GU,2024-04-11 15:26:30
harper,4.375,-7.7169,24.71,89,100,1.32,LR,2024-04-11 15:26:30
nagqu,31.5,92.0,-1.66,49,100,3.97,CN,2024-04-11 15:26:30
cantilan,9.3336,125.9775,23.36,94,100,1.72,PH,2024-04-11 15:26:30
parkano,62.0167,23.0167,3.47,98,100,3.03,FI,2024-04-11 15:26:30
kovdor,67.5662,30.4758,1.18,78,82,7.42,RU,2024-04-11 15:26:30
nantucket,41.2835,-70.0995,11.06,95,75,4.12,US,2024-04-11 15:26:07
ondjiva,-17.0667,15.7333,27.02,47,0,2.57,AO,2024-04-11 15:26:31
papao,-17.75,-149.55,29.82,84,99,8.73,PF,2024-04-11 15:26:31
trinity beach,-16.7888,145.6968,20.94,91,38,4.12,AU,2024-04-11 15:26:31
keflavik,64.0049,-22.5624,5.95,87,75,7.2,IS,2024-04-11 15:26:31
praya,14.9215,-23.5087,24.3,60,0,7.72,CV,2024-04-11 15:26:31
zalingei,12.9096,23.4741,29.28,10,100,3.93,SD,2024-04-11 15:26:31
nar'yan-mar,67.6713,53.087,1.73,100,100,7.6,RU,2024-04-11 15:26:32
glace bay,46.1969,-59.957,10.44,45,20,6.69,CA,2024-04-11 15:26:32
bel ombre,-4.6167,55.4167,24.91,94,40,1.03,SC,2024-04-11 15:26:32
homer,59.6425,-151.5483,3.94,73,100,4.12,US,2024-04-11 15:26:32
avarua,-21.2078,-159.775,28.03,89,75,7.2,CK,2024-04-11 15:26:32
iaciara,-14.0958,-46.6317,30.5,57,63,0.59,BR,2024-04-11 15:26:32
smithers,54.7804,-127.1743,6.18,81,100,3.09,CA,2024-04-11 15:25:13
sandnessjoen,66.0217,12.6316,4.29,75,0,1.54,NO,2024-04-11 15:26:32
aktas,49.7789,72.9608,-1.14,78,76,4.47,KZ,2024-04-11 15:26:33
murghob,38.1702,73.9667,-7.89,56,100,3.53,TJ,2024-04-11 15:26:33
dergachi,51.2328,48.7659,14.4,67,96,4.3,RU,2024-04-11 15:26:33
hue,16.4667,107.6,25.06,94,75,0.51,VN,2024-04-11 15:26:33
xinpu,34.5997,119.1594,12.28,83,100,1.93,CN,2024-04-11 15:26:33
pemangkat,1.1667,108.9667,25.74,90,76,2.11,ID,2024-04-11 15:26:33
dharangaon,21.0167,75.2667,30.23,42,68,5.03,IN,2024-04-11 15:26:33
yalvac,38.2956,31.1778,13.25,60,9,1.62,TR,2024-04-11 15:26:33
luau,-10.7073,22.2247,20.44,91,100,1.17,AO,2024-04-11 15:26:34
suntar,62.1444,117.6319,-15.17,97,96,2.45,RU,2024-04-11 15:26:34
villa de arista,22.65,-100.8333,22.45,24,74,9.3,MX,2024-04-11 15:26:34
sao tome,0.3365,6.7273,27.06,80,100,4.66,ST,2024-04-11 15:26:34
taltal,-25.4,-70.4833,19.73,74,100,3.24,CL,2024-04-11 15:26:34
antalaha,-14.9003,50.2788,25.67,91,8,1.27,MG,2024-04-11 15:26:34
dinguiraye,11.3,-10.7167,33.13,29,48,1.37,GN,2024-04-11 15:26:34
carutapera,-1.195,-46.02,28.97,79,27,3.11,BR,2024-04-11 15:26:34
kijang,35.2442,129.2139,8.85,93,63,1.85,KR,2024-04-11 15:26:35
honcho,35.6931,139.9833,15.57,71,100,2.11,JP,2024-04-11 15:26:35
yeonggwang,35.275,126.5094,10.81,91,77,1.61,KR,2024-04-11 15:26:35
primorsk,46.7348,36.3443,15.05,64,0,2.88,UA,2024-04-11 15:26:35
preobrazheniye,42.9019,133.9064,6.46,95,84,1.49,RU,2024-04-11 15:26:35
vila franca do campo,37.7167,-25.4333,18.27,99,6,2.16,PT,2024-04-11 15:26:35
haiku-pauwela,20.9219,-156.3051,24.59,73,40,3.13,US,2024-04-11 15:26:35
al qunaytirah,33.1259,35.8246,10.18,90,5,2.52,SY,2024-04-11 15:26:35
zambezi,-13.5432,23.1047,19.62,83,98,1.73,ZM,2024-04-11 15:26:36
refahiye,39.9008,38.7667,7.49,91,100,2.48,TR,2024-04-11 15:26:36
crucecita,-28.95,-58.9833,17.69,83,100,5.97,AR,2024-04-11 15:26:36
east london,-33.0153,27.9116,17.61,58,95,7.18,ZA,2024-04-11 15:26:36
inarajan village,13.2736,144.7484,27.54,91,100,6.08,GU,2024-04-11 15:26:36
wailua homesteads,22.0669,-159.378,26.24,89,100,3.09,US,2024-04-11 15:26:36
puerto cabezas,14.0351,-83.3888,30.98,79,75,5.14,NI,2024-04-11 15:26:36
labytnangi,66.6572,66.4183,-9.79,86,100,8.62,RU,2024-04-11 15:26:37
sekondi-takoradi,4.934,-1.7137,26.94,85,100,2.81,GH,2024-04-11 15:26:37
port hedland,-20.3167,118.5667,23.03,88,0,2.06,AU,2024-04-11 15:26:37
ghoti budrukh,19.7167,73.6333,27.01,35,100,0.92,IN,2024-04-11 15:26:37
santa vitoria do palmar,-33.5189,-53.3681,18.85,58,67,4.42,BR,2024-04-11 15:26:37
cill airne,52.05,-9.5167,12.44,97,100,3.68,IE,2024-04-11 15:26:37
kirakira,-10.4544,161.9205,25.56,83,100,1.21,SB,2024-04-11 15:25:19
qarauyl,48.9451,79.255,0.5,82,100,6.93,KZ,2024-04-11 15:26:38
miguel ahumada,30.6167,-106.5167,26.03,7,0,7.39,MX,2024-04-11 15:26:38
santa cruz,-17.8,-63.1667,28.7,61,75,8.23,BO,2024-04-11 15:26:38
colonia,50.9333,6.95,15.54,75,75,1.54,DE,2024-04-11 15:22:26
puerto ayacucho,5.6639,-67.6236,38.83,26,95,2.35,VE,2024-04-11 15:26:38
melilla,35.2937,-2.9383,17.21,63,0,4.12,ES,2024-04-11 15:24:08
talnakh,69.4865,88.3972,-26.0,98,97,3.15,RU,2024-04-11 15:26:39
kuta,-8.7233,115.1723,27.97,88,20,1.03,ID,2024-04-11 15:26:37
wamba,8.9333,8.6,31.5,21,22,0.52,NG,2024-04-11 15:26:39
vila velha,-20.3297,-40.2925,29.97,81,20,4.12,BR,2024-04-11 15:26:40
srinagar,34.0833,74.8167,11.64,74,99,1.91,IN,2024-04-11 15:26:40
berdigestyakh,62.0989,126.6992,-9.82,94,100,3.86,RU,2024-04-11 15:26:40
hamilton,39.1834,-84.5333,20.02,90,100,4.63,US,2024-04-11 15:25:38
nova vicosa,-17.8919,-39.3719,28.04,71,0,3.91,BR,2024-04-11 15:26:40
vorkuta,67.5,64.0,-9.38,87,100,12.07,RU,2024-04-11 15:26:41
cooper's town,26.8667,-77.5167,23.77,89,100,11.04,BS,2024-04-11 15:26:41
mananjary,-21.2167,48.3333,25.51,91,96,2.85,MG,2024-04-11 15:26:41
peace river,56.2501,-117.286,12.17,32,100,3.6,CA,2024-04-11 15:26:41
aracuai,-16.8497,-42.0703,33.32,40,12,3.57,BR,2024-04-11 15:26:41
nurota,40.5614,65.6886,16.37,53,100,3.35,UZ,2024-04-11 15:26:42
tarakan,3.3,117.6333,27.42,78,100,2.9,ID,2024-04-11 15:26:42
mogadishu,2.0371,45.3438,29.43,77,59,6.78,SO,2024-04-11 15:26:42
hobyo,5.3505,48.5268,29.14,75,92,3.83,SO,2024-04-11 15:26:42
kushiro,42.975,144.3747,5.53,93,100,1.54,JP,2024-04-11 15:26:43
huangpi,30.8845,114.3779,18.06,94,100,1.0,CN,2024-04-11 15:26:43
tazovsky,67.4667,78.7,-24.76,98,14,4.28,RU,2024-04-11 15:26:43
colares,38.7992,-9.4469,25.55,56,0,3.09,PT,2024-04-11 15:25:57
stepnogorsk,52.3544,71.8869,0.39,70,84,3.85,KZ,2024-04-11 15:26:44
codrington,-38.2667,141.9667,13.47,70,98,3.31,AU,2024-04-11 15:26:44
stephenville,32.2207,-98.2023,22.18,37,0,3.09,US,2024-04-11 15:24:08
san julian,21.0167,-102.1667,26.95,17,100,5.02,MX,2024-04-11 15:26:45
khandyga,62.6667,135.6,-5.15,91,98,2.69,RU,2024-04-11 15:26:45
maragogi,-9.0122,-35.2225,28.67,75,100,4.49,BR,2024-04-11 15:26:46
punta arenas,-53.15,-70.9167,11.01,57,0,7.2,CL,2024-04-11 15:24:33
fale old settlement,-9.3852,-171.2468,29.41,77,34,2.75,TK,2024-04-11 15:26:46
pangody,65.85,74.4859,-17.58,87,100,8.18,RU,2024-04-11 15:26:46
thomson,33.4707,-82.5046,27.12,60,75,4.63,US,2024-04-11 15:26:16
palikir - national government center,6.9248,158.1611,25.41,94,100,0.0,FM,2024-04-11 15:26:47
kodinsk,58.6881,99.1844,-5.31,98,100,0.71,RU,2024-04-11 15:26:47
buritizeiro,-17.3511,-44.9622,32.23,42,70,0.62,BR,2024-04-11 15:26:47
guajara mirim,-10.7828,-65.3394,33.09,58,40,4.63,BR,2024-04-11 15:21:55
kudymkar,59.0173,54.656,9.18,86,99,5.73,RU,2024-04-11 15:26:47
nuuk,64.1835,-51.7216,-1.66,86,100,1.03,GL,2024-04-11 15:25:00
tekeli,44.83,78.8239,7.7,67,100,4.38,KZ,2024-04-11 15:26:48
horta,38.5333,-28.6333,15.8,92,40,2.57,PT,2024-04-11 15:26:48
kapa'a,22.0752,-159.319,26.99,89,100,3.09,US,2024-04-11 15:26:48
playa del ingles,27.7567,-15.5787,25.86,21,0,3.85,ES,2024-04-11 15:23:09
aitape,-3.1374,142.3475,25.24,92,23,1.96,PG,2024-04-11 15:23:17
ankang,32.68,109.0172,15.88,79,0,0.32,CN,2024-04-11 15:26:49
safford,32.834,-109.7076,26.53,14,0,3.58,US,2024-04-11 15:26:49
lautoka,-17.6167,177.4667,24.92,88,20,1.54,FJ,2024-04-11 15:26:49
tinajo,29.0788,-13.7081,23.49,60,0,7.2,ES,2024-04-11 15:26:49
kindu,-2.95,25.95,23.55,94,100,2.85,CD,2024-04-11 15:26:50
pontal do parana,-25.6533,-48.5128,23.92,91,100,3.94,BR,2024-04-11 15:26:50
sao vicente,-23.9631,-46.3919,26.1,70,20,1.03,BR,2024-04-11 15:25:15
red bluff,40.1785,-122.2358,25.84,46,0,1.54,US,2024-04-11 15:23:59
ponta delgada,37.7333,-25.6667,18.44,77,20,1.54,PT,2024-04-11 15:26:50
villanueva,15.3167,-88.0,36.69,46,20,6.17,HN,2024-04-11 15:26:50
san matias,-16.3667,-58.4,31.16,64,99,2.66,BO,2024-04-11 15:26:50
klyuchi,52.2667,79.1667,-0.58,84,100,6.51,RU,2024-04-11 15:26:50
ushirombo,-3.4919,31.9639,19.29,92,18,0.67,TZ,2024-04-11 15:26:50
kristiansund,63.1115,7.732,9.36,76,75,11.83,NO,2024-04-11 15:26:51
chongwe,-15.3292,28.682,19.44,97,53,3.83,ZM,2024-04-11 15:26:51
champerico,14.3,-91.9167,36.3,62,93,5.61,GT,2024-04-11 15:26:51
weno,7.4515,151.8468,27.97,83,100,4.12,FM,2024-04-11 15:26:51
port-vila,-17.7338,168.3219,22.78,100,20,1.03,VU,2024-04-11 15:26:51
saudarkrokur,65.7461,-19.6394,1.65,97,99,2.42,IS,2024-04-11 15:26:51
fort st. john,56.2499,-120.8529,9.94,40,75,4.12,CA,2024-04-11 15:26:49
ulladulla,-35.35,150.4667,11.54,83,58,1.85,AU,2024-04-11 15:26:51
uturoa,-16.7333,-151.4333,28.56,79,19,7.43,PF,2024-04-11 15:26:52
bayji,34.9311,43.487,22.2,44,80,2.45,IQ,2024-04-11 15:26:52
velikiye luki,56.34,30.5452,10.29,52,99,4.61,RU,2024-04-11 15:23:03
bull savanna,17.8868,-77.5902,27.9,68,63,8.75,JM,2024-04-11 15:26:52
lalibela,12.0333,39.0333,20.07,48,7,3.77,ET,2024-04-11 15:26:52
templin,53.1186,13.5022,12.27,86,72,3.45,DE,2024-04-11 15:26:52
vegreville,53.5001,-112.0518,12.39,22,98,6.17,CA,2024-04-11 15:26:52
alice springs,-23.7,133.8833,11.79,57,1,2.57,AU,2024-04-11 15:23:39
el hadjira,32.6134,5.5126,13.79,71,43,8.64,DZ,2024-04-11 15:26:52
valparaiso,-33.0393,-71.6273,22.86,64,0,5.14,CL,2024-04-11 15:26:13
sola,-13.8833,167.55,28.06,79,100,4.99,VU,2024-04-11 15:26:53
saint-marcellin,45.15,5.3167,13.11,92,100,1.94,FR,2024-04-11 15:26:53
tumayr,25.7039,45.868,24.99,36,43,7.45,SA,2024-04-11 15:25:19
oranjemund,-28.55,16.4333,25.58,33,2,5.98,NA,2024-04-11 15:26:53
qingnian,36.8456,115.7117,16.46,82,0,5.42,CN,2024-04-11 15:26:53
turpan,42.9333,89.1667,19.25,23,0,0.36,CN,2024-04-11 15:26:53
sambava,-14.2667,50.1667,26.29,88,8,0.82,MG,2024-04-11 15:26:54
rio grande,-32.035,-52.0986,22.06,59,100,6.23,BR,2024-04-11 15:26:12
wuyishan,28.0047,117.8114,19.28,98,99,1.2,CN,2024-04-11 15:26:54
yeosu,34.7546,127.6599,12.48,94,100,1.5,KR,2024-04-11 15:26:54
new norfolk,-42.7826,147.0587,10.72,87,71,1.31,AU,2024-04-11 15:26:55
bocas del toro,9.3333,-82.25,28.36,76,100,4.23,PA,2024-04-11 15:26:55
luganville,-15.5333,167.1667,24.8,87,16,0.89,VU,2024-04-11 15:26:55
port blair,11.6667,92.75,28.24,78,5,1.84,IN,2024-04-11 15:26:56
ocean acres,39.7435,-74.281,20.44,89,100,0.89,US,2024-04-11 15:26:56
villa gesell,-37.2639,-56.973,13.92,58,95,4.43,AR,2024-04-11 15:22:48
hasaki,35.7333,140.8333,13.22,77,100,4.38,JP,2024-04-11 15:26:56
quesnel,52.9999,-122.5029,12.28,35,0,6.17,CA,2024-04-11 15:26:56
aydincik,36.1437,33.3202,19.33,69,6,4.47,TR,2024-04-11 15:26:56
boguchany,58.3814,97.4531,-4.52,87,100,0.89,RU,2024-04-11 15:26:57
alpine,32.835,-116.7664,29.04,36,0,2.24,US,2024-04-11 15:26:57
lahoysk,54.2016,27.8503,10.0,60,94,3.27,BY,2024-04-11 15:26:57
kittila,67.6647,24.8936,4.08,70,100,4.12,FI,2024-04-11 15:23:23
riberalta,-10.9833,-66.1,33.11,62,75,2.06,BO,2024-04-11 15:26:58
mount airy,36.4993,-80.6073,21.05,81,100,3.09,US,2024-04-11 15:26:58
la passe,45.5549,-0.8967,16.13,87,99,3.29,FR,2024-04-11 15:26:58
emerald,-23.5333,148.1667,12.97,63,0,3.67,AU,2024-04-11 15:21:59
ilhabela,-23.7781,-45.3581,25.34,87,79,2.01,BR,2024-04-11 15:26:58
saint-joseph,-21.3667,55.6167,25.21,83,44,0.49,RE,2024-04-11 15:26:58
sherghati,24.5667,84.7833,25.25,39,6,3.31,IN,2024-04-11 15:26:58
arawa,-6.2132,155.5367,25.11,89,96,1.46,PG,2024-04-11 15:26:59
behshahr,36.6923,53.5526,12.97,92,100,5.13,IR,2024-04-11 15:26:59
parabel',58.6978,81.4825,-12.27,89,62,2.68,RU,2024-04-11 15:26:59
juegang,32.3174,121.1855,14.32,94,100,2.88,CN,2024-04-11 15:26:59
hammerfest,70.6634,23.6821,1.25,93,75,3.6,NO,2024-04-11 15:26:59
arkhangel'sk,64.5401,40.5433,5.62,65,75,10.0,RU,2024-04-11 15:22:39
twon-brass,4.3151,6.2418,29.2,76,100,7.06,NG,2024-04-11 15:22:16
douentza,14.9951,-2.9517,36.57,12,100,3.03,ML,2024-04-11 15:27:00
bodo,67.28,14.405,3.3,78,75,3.09,NO,2024-04-11 15:27:00
yemetsk,63.4721,41.7941,4.98,74,100,6.59,RU,2024-04-11 15:27:00
kholmskiy,44.8469,38.385,17.0,77,71,1.35,RU,2024-04-11 15:27:00
langxiang,46.95,128.8833,6.87,92,6,1.88,CN,2024-04-11 15:27:00
strelka,58.0728,93.0344,-7.98,85,100,2.73,RU,2024-04-11 15:27:00
jayapura,-2.5333,140.7,24.66,90,97,0.47,ID,2024-04-11 15:25:55
guiuan,11.0333,125.7247,27.55,77,100,4.62,PH,2024-04-11 15:23:18
viljandi,58.3639,25.59,7.49,87,100,7.26,EE,2024-04-11 15:27:01
port macquarie,-31.4333,152.9167,13.83,85,5,3.49,AU,2024-04-11 15:27:01
tateyama,34.9833,139.8667,14.5,84,100,5.17,JP,2024-04-11 15:27:01
hajin,34.6927,40.827,23.6,31,73,3.49,SY,2024-04-11 15:27:01
grants,35.1473,-107.8514,17.13,11,0,0.0,US,2024-04-11 15:27:01
usogorsk,63.4106,48.6872,4.81,100,100,7.22,RU,2024-04-11 15:27:01
longquan,24.6719,102.1613,17.02,45,0,0.97,CN,2024-04-11 15:27:01
san patricio,28.017,-97.5169,30.97,21,0,5.25,US,2024-04-11 15:27:01
manta,-0.95,-80.7333,30.88,66,20,5.14,EC,2024-04-11 15:27:01
mazamari,-11.3258,-74.5308,33.44,41,84,1.67,PE,2024-04-11 15:27:02
nicoya,10.1483,-85.452,36.07,40,70,2.29,CR,2024-04-11 15:27:02
san andres,12.5847,-81.7006,32.01,62,20,6.69,CO,2024-04-11 15:27:02
jeddah,21.5169,39.2192,25.92,53,0,6.17,SA,2024-04-11 15:26:53
redencao,-4.2258,-38.7306,26.93,90,66,1.7,BR,2024-04-11 15:26:35
bodden town,19.2833,-81.25,31.0,70,40,5.14,KY,2024-04-11 15:27:02
nemuro,43.3236,145.575,4.19,96,100,7.14,JP,2024-04-11 15:27:03
jalai nur,49.45,117.7,7.25,85,100,3.24,CN,2024-04-11 15:27:03
saldanha,-33.0117,17.9442,19.03,53,6,5.48,ZA,2024-04-11 15:27:03
grootfontein,-19.5667,18.1167,16.76,63,100,1.03,NA,2024-04-11 15:27:03
callao,-12.0667,-77.15,28.16,61,0,5.14,PE,2024-04-11 15:26:54
wenchang,30.904,118.4887,17.04,96,100,0.66,CN,2024-04-11 15:27:03
masjed soleyman,31.9364,49.3039,24.01,32,59,1.17,IR,2024-04-11 15:27:04
lorengau,-2.0226,147.2712,26.3,86,100,0.81,PG,2024-04-11 15:27:04
minas de marcona,-15.2119,-75.1103,23.66,53,3,5.64,PE,2024-04-11 15:27:04
juneau,58.3019,-134.4197,4.67,93,75,4.63,US,2024-04-11 15:23:40
al hufuf,25.3646,49.5653,25.19,38,0,4.63,SA,2024-04-11 15:27:05
kirkwall,58.9848,-2.9587,12.03,71,20,4.63,GB,2024-04-11 15:27:05
mili,6.0815,171.735,27.03,87,100,8.34,MH,2024-04-11 15:27:05
ventspils,57.3894,21.5606,6.96,100,100,8.75,LV,2024-04-11 15:27:05
port sudan,19.6175,37.2164,25.67,58,81,5.3,SD,2024-04-11 15:27:06
hanceville,34.0607,-86.7675,15.84,94,100,6.29,US,2024-04-11 15:26:08
siemiatycze,52.4272,22.8623,10.2,67,100,3.09,PL,2024-04-11 15:27:06
ternate,0.8,127.4,26.37,82,100,2.79,ID,2024-04-11 15:27:06
tadine,-21.55,167.8833,23.09,87,100,3.76,NC,2024-04-11 15:27:07
inverloch,-38.6333,145.7167,11.14,81,99,2.33,AU,2024-04-11 15:27:07
bobo-dioulasso,11.1771,-4.2979,34.25,38,0,1.54,BF,2024-04-11 15:27:07
ambalangoda,6.2355,80.0538,27.29,82,100,2.65,LK,2024-04-11 15:27:07
cidade velha,14.9167,-23.6167,24.26,60,0,7.72,CV,2024-04-11 15:27:08
flying fish cove,-10.4217,105.6791,26.82,89,75,4.63,CX,2024-04-11 15:27:08
gizo,-8.103,156.8419,28.36,76,100,2.18,SB,2024-04-11 15:25:19
taoudenni,22.6783,-3.9836,32.66,10,0,4.32,ML,2024-04-11 15:27:08
gaalkacyo,6.7697,47.4308,27.77,70,100,8.23,SO,2024-04-11 15:27:09
kemalpasa,38.4262,27.4173,19.32,70,0,3.94,TR,2024-04-11 15:27:09
guelendeng,10.9176,15.5501,35.36,9,95,4.06,TD,2024-04-11 15:27:09
bijar,35.8668,47.6051,4.55,80,100,4.12,IR,2024-04-11 15:27:09
ceelbuur,4.685,46.6176,29.63,53,100,6.43,SO,2024-04-11 15:25:22
port douglas,-16.4833,145.4667,22.5,76,55,3.25,AU,2024-04-11 15:27:10
tshabong,-26.05,22.45,20.52,30,0,4.5,BW,2024-04-11 15:27:10
becerril,9.7041,-73.2793,42.07,21,13,2.05,CO,2024-04-11 15:27:10
berezovyy,51.6667,135.7,0.49,66,1,2.08,RU,2024-04-11 15:27:11
sujiatun,41.6592,123.3392,14.1,58,75,5.0,CN,2024-04-11 15:27:11
raduzhny,62.0961,77.475,-20.69,96,93,2.64,RU,2024-04-11 15:27:11
dakhla,23.6848,-15.958,25.01,50,0,6.69,EH,2024-04-11 15:27:11
chonchi,-42.6128,-73.8092,17.56,44,0,1.17,CL,2024-04-11 15:27:12
qaqortoq,60.7167,-46.0333,-2.7,75,89,2.18,GL,2024-04-11 15:27:12
hurricane,37.1753,-113.2899,26.19,20,0,4.47,US,2024-04-11 15:27:12
puerto carreno,6.189,-67.4859,37.99,32,44,4.12,CO,2024-04-11 15:27:12
nizao,18.25,-70.2,32.04,60,2,7.99,DO,2024-04-11 15:27:12
kuraymah,18.55,31.85,26.59,10,40,5.07,SD,2024-04-11 15:27:13
sungailiat,-1.85,106.1333,26.15,88,98,1.06,ID,2024-04-11 15:27:13
freetown,8.484,-13.2299,27.84,74,20,7.2,SL,2024-04-11 15:27:13
wynyard,-41.0,145.7167,11.59,83,98,2.86,AU,2024-04-11 15:27:13
luanda,-8.8368,13.2343,27.0,83,40,3.6,AO,2024-04-11 15:23:15
senillosa,-39.0,-68.4167,14.88,39,100,7.35,AR,2024-04-11 15:27:14
milton-freewater,45.9326,-118.3877,18.4,52,0,1.79,US,2024-04-11 15:27:14
chanika,-5.4167,38.0167,21.53,98,63,1.7,TZ,2024-04-11 15:27:14
saacow,1.6279,42.4407,30.37,62,45,5.35,SO,2024-04-11 15:27:14
galliano,29.4422,-90.2992,21.67,49,40,8.23,US,2024-04-11 15:27:14
angaur state,6.906,134.13,28.28,73,10,5.17,PW,2024-04-11 15:24:17
syktyvkar,61.6764,50.8099,6.06,65,0,8.05,RU,2024-04-11 15:27:14
vyritsa,59.4078,30.3481,9.2,76,100,5.42,RU,2024-04-11 15:27:15
la'ie,21.6477,-157.9253,26.98,80,100,4.02,US,2024-04-11 15:27:15
pisco,-13.7,-76.2167,27.03,65,0,4.63,PE,2024-04-11 15:27:15
nova sintra,14.8667,-24.7167,22.84,73,3,6.76,CV,2024-04-11 15:27:15
taos,36.4072,-105.5731,16.1,26,0,6.69,US,2024-04-11 15:26:57
northam,51.0333,-4.2167,12.56,96,90,6.17,GB,2024-04-11 15:27:15
tucupita,9.0622,-62.051,31.85,53,90,3.66,VE,2024-04-11 15:27:15
vlore,40.4667,19.4897,16.86,85,99,1.86,AL,2024-04-11 15:27:15
agar,23.7,76.0167,27.2,38,100,0.98,IN,2024-04-11 15:27:16
aykhal,66.0,111.5,-28.05,100,100,2.68,RU,2024-04-11 15:27:16
guerrero negro,27.9769,-114.0611,24.1,39,30,3.68,MX,2024-04-11 15:27:16
castilho,-20.8722,-51.4875,29.63,59,100,0.9,BR,2024-04-11 15:27:16
praia,14.9215,-23.5087,24.3,60,0,7.72,CV,2024-04-11 15:25:43
grand gaube,-20.0064,57.6608,26.88,90,6,3.14,MU,2024-04-11 15:27:17
karatas,36.582,35.3701,18.08,81,30,2.38,TR,2024-04-11 15:27:17
matamba,-8.9833,33.9667,14.48,93,100,1.74,TZ,2024-04-11 15:27:17
verkhnevilyuysk,63.4453,120.3167,-14.6,95,100,2.59,RU,2024-04-11 15:27:17
magadan,59.5667,150.8,-8.04,92,29,2.22,RU,2024-04-11 15:27:18
bani walid,31.7566,13.9942,15.39,81,24,7.7,LY,2024-04-11 15:27:18
quelimane,-17.8786,36.8883,25.97,89,75,2.67,MZ,2024-04-11 15:27:18
altamira,-3.2033,-52.2064,29.05,84,40,2.57,BR,2024-04-11 15:25:28
shantobe,52.4581,68.1839,-2.4,90,10,2.05,KZ,2024-04-11 15:27:18
kiffa,16.6166,-11.4045,38.79,12,80,3.92,MR,2024-04-11 15:27:19
kapan,39.2075,46.4058,8.42,93,100,2.03,AM,2024-04-11 15:27:19
bayanhongor,46.7167,100.1167,-1.69,56,96,1.4,MN,2024-04-11 15:27:19
bollnas,61.3482,16.3946,6.61,86,8,5.22,SE,2024-04-11 15:27:20
ballina,-28.8667,153.5667,15.43,88,100,4.95,AU,2024-04-11 15:27:20
aoulef,26.9667,1.0833,27.47,12,0,7.51,DZ,2024-04-11 15:27:20
torghay,49.6339,63.4981,5.45,61,2,3.08,KZ,2024-04-11 15:27:20
mo i rana,66.3128,14.1428,3.26,70,75,2.06,NO,2024-04-11 15:27:21
kalmunai,7.4167,81.8167,27.38,83,96,2.07,LK,2024-04-11 15:27:21
conceicao do araguaia,-8.2578,-49.2647,29.52,78,96,1.45,BR,2024-04-11 15:27:21
holualoa,19.6228,-155.9522,24.37,81,75,3.09,US,2024-04-11 15:27:22
dhidhdhoo,6.8833,73.1,29.75,72,3,2.56,MV,2024-04-11 15:23:23
monguno,12.6786,13.6079,30.79,16,100,4.55,NG,2024-04-11 15:27:22
al bawiti,28.3492,28.8659,21.63,29,0,4.0,EG,2024-04-11 15:27:22
ca mau,9.1769,105.15,27.85,73,100,3.68,VN,2024-04-11 15:27:22
jieshi,22.8134,115.8257,22.03,85,8,1.49,CN,2024-04-11 15:27:23
benguela,-12.5763,13.4055,25.74,85,99,2.73,AO,2024-04-11 15:27:23
santa ana,33.7456,-117.8678,32.26,50,20,4.12,US,2024-04-11 15:22:34
gostynin,52.4294,19.4619,11.18,67,100,3.01,PL,2024-04-11 15:27:23
scottburgh,-30.2867,30.7532,17.46,56,0,7.17,ZA,2024-04-11 15:27:23
bardai,11.65,7.2333,31.28,8,100,3.92,NG,2024-04-11 15:27:24
rybinsk,58.0446,38.8426,9.07,64,87,3.58,RU,2024-04-11 15:27:24
punta del este,-34.9667,-54.95,18.06,67,75,5.66,UY,2024-04-11 15:27:24
kismayo,-0.3582,42.5454,29.51,77,20,3.67,SO,2024-04-11 15:27:24
taulaga,-11.0553,-171.0883,29.72,74,92,3.41,AS,2024-04-11 15:27:25
sonderborg,54.9093,9.8074,11.93,87,75,3.6,DK,2024-04-11 15:27:25
acajutla,13.5928,-89.8275,31.75,62,57,6.42,SV,2024-04-11 15:23:16
tazacorte,28.629,-17.9293,22.54,64,0,6.17,ES,2024-04-11 15:27:25
okap,19.7578,-72.2042,25.46,79,17,6.62,HT,2024-04-11 15:27:26
jaisalmer,26.9147,70.9181,32.09,18,100,4.36,IN,2024-04-11 15:24:59
mildura,-34.2,142.15,11.05,75,0,3.88,AU,2024-04-11 15:27:26
puerto penasco,31.3167,-113.5333,31.99,72,0,2.68,MX,2024-04-11 15:27:26
coahuayana de hidalgo,18.7,-103.6583,31.09,43,1,3.92,MX,2024-04-11 15:27:26
kiunga,-6.1219,141.2906,23.13,100,100,0.44,PG,2024-04-11 15:23:17
qarqaraly,49.4058,75.4742,-2.95,86,99,4.71,KZ,2024-04-11 15:27:26
barcelos,41.5388,-8.6151,20.08,72,100,1.79,PT,2024-04-11 15:26:52
north bondi,-33.8824,151.2769,14.42,87,2,2.06,AU,2024-04-11 15:27:27
aldinga beach,-35.2793,138.4604,13.7,80,3,2.09,AU,2024-04-11 15:27:27
cam ranh,11.9214,109.1591,26.98,74,20,1.54,VN,2024-04-11 15:27:27
benito juarez,19.385,-99.165,25.19,32,40,4.63,MX,2024-04-11 15:22:31
becal,20.45,-90.0333,35.06,13,27,5.96,MX,2024-04-11 15:27:27
kinmparana,12.8402,-4.9199,35.27,27,100,2.8,ML,2024-04-11 15:27:27
chemolgan,43.1897,76.5292,9.81,61,100,2.62,KZ,2024-04-11 15:27:27
al jumum,21.6169,39.6981,25.83,36,94,4.96,SA,2024-04-11 15:27:28
rasskazovo,52.6714,41.9033,19.75,64,100,3.12,RU,2024-04-11 15:27:28
kremenchuk,49.0973,33.4197,18.64,67,87,3.37,UA,2024-04-11 15:27:28
santarem,-2.4431,-54.7083,30.07,74,20,2.57,BR,2024-04-11 15:23:37
chapulco,18.6083,-97.4167,22.27,20,0,6.23,MX,2024-04-11 15:27:28
tralee,52.2704,-9.7026,12.87,95,100,4.05,IE,2024-04-11 15:27:28
mount isa,-20.7333,139.5,13.87,54,0,4.12,AU,2024-04-11 15:27:28
toliara,-23.35,43.6667,24.56,73,100,4.34,MG,2024-04-11 15:27:29
saint croix,17.7397,-64.7388,28.25,70,100,7.72,VI,2024-04-11 15:27:29
vernon,50.2581,-119.2691,14.23,41,100,1.03,CA,2024-04-11 15:24:22
forio,40.7342,13.8646,17.51,82,100,3.58,IT,2024-04-11 15:27:30
pitimbu,-7.4706,-34.8086,30.33,75,100,4.58,BR,2024-04-11 15:27:31
tostedt,53.2833,9.7167,12.68,80,100,3.75,DE,2024-04-11 15:27:31
kattivakkam,13.2167,80.3167,30.06,76,5,4.76,IN,2024-04-11 15:27:31
dompu,-8.5356,118.4622,23.03,96,75,1.03,ID,2024-04-11 15:27:31
arafat,21.3594,39.9664,27.83,26,97,3.14,SA,2024-04-11 15:27:31
vilyuysk,63.7553,121.6247,-15.32,95,100,2.89,RU,2024-04-11 15:27:31
bad harzburg,51.8833,10.5667,13.81,88,100,1.98,DE,2024-04-11 15:27:32
pandan,14.0453,124.1694,25.52,87,99,3.3,PH,2024-04-11 15:27:32
troitskiy,57.0603,63.7481,5.12,73,100,5.91,RU,2024-04-11 15:27:32
sinop,41.7711,34.8709,9.95,96,29,1.36,TR,2024-04-11 15:27:32
turbat,26.0023,63.044,28.06,45,8,1.81,PK,2024-04-11 15:27:32
saint-philippe,-21.3585,55.7679,25.77,86,47,1.43,RE,2024-04-11 15:27:33
yamada,39.4667,141.95,8.44,87,100,2.84,JP,2024-04-11 15:27:33
sangmelima,2.9333,11.9833,22.09,98,100,1.83,CM,2024-04-11 15:27:33
dabat,12.9842,37.765,19.96,21,40,2.97,ET,2024-04-11 15:27:33
zhongxiang,31.1661,112.5831,14.43,89,0,1.78,CN,2024-04-11 15:27:33
phan rang-thap cham,11.5667,108.9833,24.6,83,37,2.12,VN,2024-04-11 15:27:34
mil'kovo,55.6078,37.7956,11.86,56,10,4.14,RU,2024-04-11 15:27:34
sansanne-mango,10.3592,0.4708,33.78,35,100,3.36,TG,2024-04-11 15:27:34
leh,34.1667,77.5833,-10.08,81,95,2.26,IN,2024-04-11 15:27:34
south hedland,-20.4089,118.5983,22.96,88,0,2.06,AU,2024-04-11 15:27:34
nabire,-3.3667,135.4833,23.98,96,100,0.57,ID,2024-04-11 15:26:29
kongsvinger,60.1905,11.9977,12.37,87,2,2.19,NO,2024-04-11 15:27:35
isangel,-19.55,169.2667,25.06,94,75,0.0,VU,2024-04-11 15:27:35
vuktyl,63.8567,57.3094,0.62,96,100,7.6,RU,2024-04-11 15:27:35
selfoss,63.9331,-20.9971,5.02,98,100,4.77,IS,2024-04-11 15:27:35
praia da vitoria,38.7333,-27.0667,19.14,77,75,2.7,PT,2024-04-11 15:24:17
luena,-11.7833,19.9167,22.1,83,100,2.57,AO,2024-04-11 15:27:35
hulan,45.9833,126.6,9.06,66,100,6.58,CN,2024-04-11 15:27:36
suva,-18.1416,178.4415,24.71,100,20,0.0,FJ,2024-04-11 15:27:36
ma'an,26.9775,110.7211,18.82,98,100,0.62,CN,2024-04-11 15:27:36
